0,city_ascii,lat,long,country,population
1,Tokyo,35.6897,139.6922,Japan,37977000
2,Jakarta,-6.2146,106.8451,Indonesia,34540000
3,Delhi,28.66,77.23,India,29617000
4,Mumbai,18.9667,72.8333,India,23355000
5,Manila,14.5958,120.9772,Philippines,23088000
6,Shanghai,31.1667,121.4667,China,22120000
7,Sao Paulo,-23.5504,-46.6339,Brazil,22046000
8,Seoul,37.5833,127,"Korea, South",21794000
9,Mexico City,19.4333,-99.1333,Mexico,20996000
10,Guangzhou,23.1288,113.259,China,20902000
11,Beijing,39.905,116.3914,China,19433000
12,Cairo,30.0561,31.2394,Egypt,19372000
13,New York,40.6943,-73.9249,United States,18713220
14,Kolkata,22.5411,88.3378,India,17560000
15,Moscow,55.7558,37.6178,Russia,17125000
16,Bangkok,13.75,100.5167,Thailand,17066000
17,Buenos Aires,-34.5997,-58.3819,Argentina,16157000
18,Shenzhen,22.535,114.054,China,15929000
19,Dhaka,23.7161,90.3961,Bangladesh,15443000
20,Lagos,6.45,3.4,Nigeria,15279000
21,Istanbul,41.01,28.9603,Turkey,15154000
22,Osaka,34.6936,135.5019,Japan,14977000
23,Karachi,24.86,67.01,Pakistan,14835000
24,Bangalore,12.9699,77.598,India,13707000
25,Tehran,35.7,51.4167,Iran,13633000
26,Kinshasa,-4.3317,15.3139,Congo (Kinshasa),13528000
27,Ho Chi Minh City,10.8167,106.6333,Vietnam,13312000
28,Los Angeles,34.1139,-118.4068,United States,12750807
29,Rio de Janeiro,-22.9083,-43.1964,Brazil,12272000
30,Nanyang,32.9987,112.5292,China,12010000
31,Chennai,13.0825,80.275,India,11324000
32,Chengdu,30.6636,104.0667,China,11309000
33,Lahore,31.5497,74.3436,Pakistan,11021000
34,Paris,48.8566,2.3522,France,11020000
35,London,51.5072,-0.1275,United Kingdom,10979000
36,Linyi,35.0606,118.3425,China,10820000
37,Tianjin,39.1467,117.2056,China,10800000
38,Shijiazhuang,38.0422,114.5086,China,10784600
39,Baoding,38.8671,115.4845,China,10700000
40,Zhoukou,33.625,114.6418,China,9901000
41,Lima,-12.05,-77.0333,Peru,9848000
42,Hyderabad,17.3667,78.4667,India,9746000
43,Bogota,4.6126,-74.0705,Colombia,9464000
44,Weifang,36.7167,119.1,China,9373000
45,Nagoya,35.1167,136.9333,Japan,9113000
46,Wuhan,30.5872,114.2881,China,8962000
47,Heze,35.2333,115.4333,China,8750000
48,Ganzhou,25.8292,114.9336,China,8677600
49,Tongshan,34.261,117.1859,China,8669000
50,Chicago,41.8373,-87.6862,United States,8604203
51,Handan,36.6116,114.4894,China,8499000
52,Luanda,-8.8383,13.2344,Angola,8417000
53,Fuyang,32.8986,115.8045,China,8360000
54,Kuala Lumpur,3.1478,101.6953,Malaysia,8285000
55,Jining,35.4,116.5667,China,8023000
56,Dongguan,23.0475,113.7493,China,7981000
57,Hanoi,21.0245,105.8412,Vietnam,7785000
58,Pune,18.5196,73.8553,India,7764000
59,Chongqing,29.55,106.5069,China,7739000
60,Changchun,43.9,125.2,China,7674439
61,Zhumadian,32.9773,114.0253,China,7640000
62,Ningbo,29.875,121.5492,China,7639000
63,Onitsha,6.1667,6.7833,Nigeria,7635000
64,Nanjing,32.05,118.7667,China,7496000
65,Hefei,31.8639,117.2808,China,7457027
66,Ahmadabad,23.03,72.58,India,7410000
67,Hong Kong,22.305,114.185,Hong Kong,7347000
68,Khartoum,15.6031,32.5265,Sudan,7282000
69,Nantong,31.9829,120.8873,China,7282835
70,Yancheng,33.3936,120.1339,China,7260240
71,Foshan,23.0292,113.1056,China,7194311
72,Nanning,22.8192,108.315,China,7153300
73,Hengyang,26.8968,112.5857,China,7148344
74,Xi'an,34.2667,108.9,China,7135000
75,Shenyang,41.8039,123.4258,China,7105000
76,Tangshan,39.6292,118.1742,China,7100000
77,Shaoyang,27.2418,111.4725,China,7071000
78,Changsha,28.1987,112.9709,China,7044118
79,Santiago,-33.45,-70.6667,Chile,7007000
80,Zhengzhou,34.7492,113.6605,China,7005000
81,Zhanjiang,21.1967,110.4031,China,6900000
82,Riyadh,24.65,46.71,Saudi Arabia,6881000
83,Cangzhou,38.3037,116.8452,China,6800000
84,Dar es Salaam,-6.8,39.2833,Tanzania,6698000
85,Maoming,21.6618,110.9178,China,6706000
86,Huanggang,30.45,114.875,China,6667000
87,Xinyang,32.1264,114.0672,China,6634000
88,Shangrao,28.4419,117.9633,China,6579714
89,Luoyang,34.6587,112.4245,China,6549941
90,Bijie,27.3019,105.2863,China,6537498
91,Yantai,37.3997,121.2664,China,6516900
92,Quanzhou,24.9139,118.5858,China,6480000
93,Hangzhou,30.25,120.1675,China,6446000
94,Miami,25.7839,-80.2102,United States,6445545
95,Kunming,25.0433,102.7061,China,6250000
96,Nanchong,30.7991,106.0784,China,6183000
97,Zunyi,27.705,106.9336,China,6127009
98,Lu'an,31.7542,116.5078,China,6090000
99,Yichun,27.8041,114.383,China,6048700
100,Madrid,19.0833,-103.8667,Mexico,6026000
101,Taizhou,28.6583,121.4221,China,5968838
102,Liaocheng,36.45,115.9833,China,5955300
103,Qujing,25.5102,103.8029,China,5855055
104,Xiangyang,32.0654,112.1531,China,5844000
105,Surat,21.17,72.83,India,5807000
106,Baghdad,33.35,44.4167,Iraq,5796000
107,Qingdao,36.1167,120.4,China,5775000
108,Singapore,1.3,103.8,Singapore,5745000
109,Dallas,32.7936,-96.7662,United States,5743938
110,Changde,29.0397,111.6839,China,5717200
111,Dazhou,31.2152,107.4947,China,5693000
112,Suzhou,33.6333,116.9683,China,5690000
113,Philadelphia,40.0077,-75.1339,United States,5649300
114,Jieyang,23.5533,116.3649,China,5634000
115,Nairobi,-1.2864,36.8172,Kenya,5545000
116,Nangandao,35.2992,113.8851,China,5516000
117,Ankara,39.93,32.85,Turkey,5503985
118,Tai'an,36.2001,117.0809,China,5499000
119,Yulin,22.6293,110.1507,China,5487368
120,Dezhou,37.4513,116.3105,China,5470000
121,Houston,29.7863,-95.3889,United States,5464251
122,Atlanta,33.7627,-84.4224,United States,5449398
123,Rangoon,16.8,96.15,Burma,5430000
124,Toronto,43.7417,-79.3733,Canada,5429524
125,Suihua,46.6384,126.9808,China,5420000
126,Washington,38.9047,-77.0163,United States,5379184
127,Qiqihar,47.3398,123.9512,China,5367003
128,Jinhua,29.1046,119.6494,China,5361572
129,Saint Petersburg,59.95,30.3167,Russia,5351935
130,Shantou,23.3735,116.6941,China,5319028
131,Sydney,-33.865,151.2094,Australia,5312163
132,Weinan,34.4996,109.4684,China,5300000
133,Suqian,33.9331,118.2831,China,5290000
134,Guadalajara,20.6767,-103.3475,Mexico,5253000
135,Suzhou,31.304,120.6164,China,5250000
136,Fuzhou,26.0769,119.2917,China,5245000
137,Zhaotong,27.3328,103.7144,China,5213521
138,Pudong,31.2231,121.5397,China,5187200
139,Yongzhou,26.4515,111.5953,China,5180235
140,Belo Horizonte,-19.8917,-43.9478,Brazil,5159000
141,Zhangzhou,24.5093,117.6612,China,5140000
142,Bozhou,33.8626,115.7742,China,5100000
143,Melbourne,-37.8136,144.9631,Australia,5078193
144,Nanchang,28.6842,115.8872,China,5042565
145,Xianyang,34.35,108.7167,China,5040000
146,Taizhou,32.4831,119.9,China,5031000
147,Surabaya,-7.2458,112.7378,Indonesia,4975000
148,Abidjan,5.3364,-4.0267,C“te D?Ivoire,4980000
149,Ji'an,27.1172,114.9793,China,4956600
150,Mianyang,31.4669,104.7385,China,4945000
151,Shaoxing,30,120.5833,China,4912239
152,Alexandria,31.2,29.9167,Egypt,4870000
153,Yuncheng,35.0304,110.998,China,4860000
154,Pingdingshan,33.735,113.2999,China,4838000
155,Huai'an,33.5,119.1331,China,4799889
156,Xinpu,34.5906,119.1801,China,4790000
157,Guilin,25.2667,110.2833,China,4747963
158,Huaihua,27.5494,109.9592,China,4741948
159,Jiujiang,29.7048,116.0021,China,4728778
160,Anqing,30.5,117.0333,China,4723000
161,Boston,42.3188,-71.0846,United States,4688346
162,Huanglongsi,34.7936,114.3403,China,4676159
163,Xiaoganzhan,30.9273,113.911,China,4665000
164,Changzhou,31.8122,119.9692,China,4592431
165,Barcelona,41.3825,2.1769,Spain,4588000
166,Chenzhou,25.7989,113.0267,China,4581778
167,Wuxi,31.5667,120.2833,China,4580000
168,Zibo,36.7831,118.0497,China,4530597
169,Jiaxing,30.7522,120.75,China,4501657
170,Dalian,38.9131,121.61,China,4480000
171,Harbin,45.75,126.6333,China,4458000
172,Yangzhou,32.3912,119.4363,China,4459000
173,Yibin,28.7596,104.64,China,4456000
174,Jiangmen,22.5833,113.0833,China,4448871
175,Johannesburg,-26.2044,28.0416,South Africa,4434827
176,Meizhou,24.2998,116.1191,China,4378800
177,Chifeng,42.2663,118.9223,China,4376600
178,Casablanca,33.5992,-7.62,Morocco,4370000
179,Guiyang,26.5794,106.7078,China,4365000
180,Langfang,39.5196,116.7006,China,4358839
181,Zhangjiakou,40.8108,114.8811,China,4345491
182,Izmir,38.4127,27.1384,Turkey,4320519
183,Linfen,36.0812,111.5087,China,4316610
184,Wenzhou,27.9991,120.6561,China,4310000
185,Monterrey,25.6667,-100.3,Mexico,4295000
186,Luzhou,28.8918,105.4409,China,4291000
187,Jiangguanchi,34.0244,113.8201,China,4289000
188,Neijiang,29.5872,105.0635,China,4238000
189,Phoenix,33.5722,-112.0891,United States,4219697
190,Yanjiang,30.1256,104.6397,China,4217000
191,Yiyang,28.5833,112.3333,China,4174000
192,Zhaoqing,23.047,112.465,China,4151700
193,Hengshui,37.7348,115.686,China,4150000
194,Guigang,23.0961,109.6092,China,4118808
195,Xiaoxita,30.7083,111.2803,China,4115000
196,Xiamen,24.4797,118.0819,China,4110000
197,Chuzhou,32.3062,118.3115,China,4110000
198,Fuzhou,27.9814,116.3577,China,4047200
199,Amman,31.95,35.9333,Jordan,4007526
200,Jeddah,21.5428,39.1728,Saudi Arabia,3976000
201,Sialkot City,32.5,74.5333,Pakistan,3893672
202,Huizhou,23.1115,114.4152,China,3875000
203,Qingyuan,23.6842,113.0507,China,3874000
204,Zhuzhou,27.8407,113.1469,China,3855609
205,Wuhu,31.334,118.3622,China,3842100
206,Hechi,23.0965,109.6091,China,3830000
207,Seattle,47.6211,-122.3244,United States,3789215
208,Loudi,27.7378,111.9974,China,3785627
209,Binzhou,37.3806,118.0125,China,3779200
210,Liuzhou,24.3181,109.4069,China,3758704
211,Yokohama,35.4333,139.6333,Japan,3748781
212,Baojishi,34.3609,107.1751,China,3738700
213,Guang'an,30.4673,106.6336,China,3723000
214,Hanzhong,33.0794,107.026,China,3700000
215,Kabul,34.5328,69.1658,Afghanistan,3678034
216,Zaozhuang,34.8667,117.55,China,3650000
217,Berlin,52.5167,13.3833,Germany,3644826
218,Anshan,41.1066,122.9895,China,3645884
219,Deyang,31.1289,104.395,China,3636000
220,Lanzhou,36.0617,103.8318,China,3616163
221,Chengde,40.9739,117.9322,China,3610000
222,San Francisco,37.7562,-122.443,United States,3592294
223,Puyang,35.7639,115.03,China,3580000
224,Suining,30.5098,105.5737,China,3556000
225,Jiaozuo,35.229,113.2304,China,3540101
226,Bengbu,32.9354,117.3531,China,3525000
227,Montreal,45.5089,-73.5617,Canada,3519595
228,Detroit,42.3834,-83.1024,United States,3506126
229,Baicheng,23.901,106.6194,China,3466758
230,Busan,35.1,129.0403,"Korea, South",3440484
231,Algiers,36.7764,3.0586,Algeria,3415811
232,Qincheng,34.5809,105.7311,China,3400000
233,Taiyuan,37.8733,112.5425,China,3398000
234,Lucknow,26.847,80.947,India,3382000
235,Chaoyang,41.5757,120.4486,China,3370000
236,Hechi,24.6928,108.085,China,3369251
237,Leshan,29.5854,103.7575,China,3364000
238,Yulinshi,38.2655,109.7388,China,3328000
239,Siping,43.1715,124.3644,China,3300000
240,Madrid,40.4189,-3.6919,Spain,3266126
241,Jinan,36.6667,116.9833,China,3250000
242,Shiyan,32.6351,110.7755,China,3228000
243,Changzhi,36.1953,113.097,China,3230000
244,San Diego,32.8312,-117.1225,United States,3220118
245,Faisalabad,31.418,73.079,Pakistan,3203846
246,Santa Cruz,-17.7892,-63.1975,Bolivia,3151676
247,Bazhou,31.8576,106.7559,China,3134000
248,Zhongshan,22.5333,113.35,China,3121275
249,Zhenjiang,32.2109,119.4551,China,3113384
250,Urumqi,43.825,87.6,China,3112559
251,Tongliao,43.6172,122.264,China,3094600
252,Heyuan,23.7503,114.6923,China,3093900
253,Tongren,27.7233,109.1885,China,3093204
254,Qinzhou,21.95,108.6167,China,3079721
255,Jaipur,26.9167,75.8667,India,3073350
256,Xinzhou,38.4178,112.7233,China,3067501
257,Addis Ababa,9.0272,38.7369,Ethiopia,3041002
258,Giza,29.987,31.2118,Egypt,3021542
259,Meishan,30.0575,103.8381,China,3020000
260,Brasilia,-15.7744,-48.0773,Brazil,3015268
261,Mashhad,36.3069,59.6042,Iran,3001184
262,Jinzhou,41.1144,121.1292,China,3000000
263,Tieling,42.2841,123.8365,China,3000000
264,Shaoguan,24.8011,113.5927,China,2997600
265,Shanwei,22.7664,115.3331,China,2990000
266,Minneapolis,44.9635,-93.2678,United States,2977172
267,Kyiv,50.45,30.5236,Ukraine,2967000
268,Sanaa,15.35,44.2,Yemen,2957000
269,Quezon City,14.6333,121.0333,Philippines,2936116
270,Dingxi,35.5806,104.6263,China,2930000
271,Salvador,-12.9708,-38.5108,Brazil,2921087
272,Incheon,37.4639,126.6486,"Korea, South",2913024
273,Bursa,40.1833,29.0667,Turkey,2901396
274,Ningde,26.6667,119.5167,China,2910000
275,Tampa,27.9942,-82.4451,United States,2908063
276,Daqing,46.5979,125.008,China,2904532
277,Birmingham,52.48,-1.9025,United Kingdom,2897303
278,Putian,25.4394,119.0103,China,2900000
279,Huzhou,30.8695,120.0958,China,2893542
280,Wuzhou,23.4833,111.3167,China,2882200
281,Denver,39.7621,-104.8759,United States,2876625
282,Rome,41.8931,12.4828,Italy,2872800
283,La Paz,-16.4942,-68.1475,Bolivia,2867504
284,Pyongyang,39.03,125.73,"Korea, North",2863000
285,Kano,12,8.5167,Nigeria,2828861
286,Taichung,24.15,120.6667,Taiwan,2803894
287,Omdurman,15.6835,32.4629,Sudan,2805396
288,Zigong,29.3498,104.7645,China,2800000
289,Qinhuangdao,39.9398,119.5881,China,2800000
290,Mudanjiang,44.5861,129.5997,China,2790000
291,Huludao,40.7094,120.8378,China,2787000
292,Kaohsiung,22.6167,120.3,Taiwan,2773533
293,Xiangtan,27.8431,112.9228,China,2748552
294,Guayaquil,-2.1833,-79.8833,Ecuador,2723665
295,Rizhao,35.4164,119.4331,China,2720000
296,Manchester,53.4794,-2.2453,United Kingdom,2705000
297,Cawnpore,26.4725,80.3311,India,2701324
298,Baotou,40.6562,109.8345,China,2700000
299,Taipei,25.0478,121.5319,Taiwan,2684567
300,Nanping,26.6448,118.1728,China,2690000
301,Longyan,25.0881,117.0244,China,2640000
302,Ibadan,7.3964,3.9167,Nigeria,2628000
303,Hohhot,40.8151,111.6629,China,2635000
304,Chaozhou,23.67,116.63,China,2620000
305,Antananarivo,-18.9386,47.5214,Madagascar,2610000
306,Longba,33.535,105.349,China,2614000
307,Weihai,37.5,122.1,China,2596753
308,Chattogram,22.335,91.8325,Bangladesh,2581643
309,Santo Domingo,18.4764,-69.8933,Dominican Republic,2581827
310,Xuanzhou,30.9475,118.7518,China,2580000
311,Sanming,26.2658,117.6302,China,2580000
312,Brooklyn,40.6501,-73.9496,United States,2559903
313,Medellin,6.2447,-75.5748,Colombia,2529403
314,Brisbane,-27.4678,153.0281,Australia,2514184
315,Baoshan,25.1211,99.169,China,2506491
316,Dubai,25.2697,55.3094,United Arab Emirates,2502715
317,Luohe,33.583,114.0109,China,2500000
318,Qinbaling,35.7278,107.64,China,2500000
319,Mirzapur,25.15,82.58,India,2496970
320,Guangyuan,32.4353,105.8398,China,2484122
321,Cali,3.44,-76.5197,Colombia,2471474
322,Daegu,35.8667,128.6,"Korea, South",2461002
323,Fortaleza,-3.7275,-38.5275,Brazil,2452185
324,Guatemala City,14.6099,-90.5252,Guatemala,2450212
325,Yaounde,3.8578,11.5181,Cameroon,2440462
326,Douala,4.05,9.7,Cameroon,2446945
327,Jilin,43.85,126.55,China,2396000
328,Lianshan,40.7503,120.83,China,2426000
329,Lincang,23.8864,100.0871,China,2429497
330,Antalya,36.9081,30.6956,Turkey,2426356
331,Tashkent,41.3,69.2667,Uzbekistan,2424100
332,Huangshi,30.2018,115.0326,China,2419000
333,Bandung,-6.95,107.5667,Indonesia,2394873
334,Nagpur,21.1539,79.0831,India,2405665
335,Dandong,40.1167,124.3833,China,2400000
336,Huainan,32.4831,117.0164,China,2409000
337,Shangzhou,33.868,109.9244,China,2400000
338,Bekasi,-6.2333,107,Indonesia,2381053
339,Ghaziabad,28.6667,77.4167,India,2381452
340,Tijuana,32.525,-117.0333,Mexico,2384609
341,Jiamusi,46.8081,130.3653,China,2360000
342,Yangjiang,21.8556,111.9627,China,2357000
343,Accra,5.6037,-0.187,Ghana,2291352
344,Yuxi,24.3495,102.5432,China,2303518
345,Fushun,41.8708,123.8917,China,2300000
346,Anshun,26.2456,105.934,China,2297612
347,Vancouver,49.25,-123.1,Canada,2264823
348,Tangerang,-6.1783,106.6319,Indonesia,2237006
349,Konya,37.8714,32.4847,Turkey,2232374
350,Queens,40.7498,-73.7976,United States,2230722
351,Yingkou,40.6653,122.2297,China,2220000
352,Adana,37,35.325,Turkey,2220125
353,Medan,3.6667,98.6667,Indonesia,2210625
354,Sanmenxia,34.7736,111.195,China,2213000
355,Indore,22.7206,75.8472,India,2201927
356,Ma'anshan,31.7135,118.3605,China,2202899
357,Pingliang,35.5412,106.6819,China,2190000
358,Quzhou,28.9545,118.8763,China,2185000
359,Baku,40.3667,49.8352,Azerbaijan,2181800
360,Gaoping,30.7804,106.13,China,2174000
361,Huaibei,33.9562,116.789,China,2158000
362,Xining,36.6239,101.7787,China,2154000
363,Yan'an,36.5952,109.4863,China,2150000
364,Havana,23.1367,-82.3589,Cuba,2141652
365,Phnom Penh,11.5696,104.921,Cambodia,2129371
366,Fukuoka,33.5903,130.4019,Japan,2128000
367,Mogadishu,2.0408,45.3425,Somalia,2120000
368,Jincheng,35.4906,112.8483,China,2120000
369,Lishui,28.45,119.9167,China,2116957
370,Qingyang,24.8141,118.5792,China,2111000
371,Riverside,33.9381,-117.3948,United States,2107852
372,Baltimore,39.3051,-76.6144,United States,2106068
373,Haiphong,20.8,106.6667,Vietnam,2103500
374,Las Vegas,36.2333,-115.2654,United States,2104198
375,Laibin,23.7333,109.2333,China,2099711
376,Rawalpindi,33.6007,73.0679,Pakistan,2098231
377,Kumasi,6.6833,-1.6167,Ghana,2069350
378,Portland,45.5372,-122.65,United States,2074775
379,Vadodara,22.3,73.2,India,2065771
380,Perth,-31.9522,115.8589,Australia,2059484
381,Puning,23.2993,116.1586,China,2055552
382,San Antonio,29.4658,-98.5253,United States,2049293
383,Haikou,20.02,110.32,China,2046189
384,Vishakhapatnam,17.7333,83.3167,India,2035922
385,Gaziantep,37.0667,37.3833,Turkey,2028563
386,Minsk,53.9022,27.5618,Belarus,2020600
387,St. Louis,38.6358,-90.2451,United States,2024074
388,Bamako,12.6458,-7.9922,Mali,2009109
389,Quito,-0.2186,-78.5097,Ecuador,2011388
390,Pingxiang,27.6333,113.85,China,2001027
391,Chongzuo,22.4167,107.3667,China,1994285
392,Sanliurfa,37.1583,38.7917,Turkey,1985753
393,Kananga,-5.897,22.4488,Congo (Kinshasa),1971704
394,Peshawar,34,71.5,Pakistan,1970042
395,Sapporo,43.0621,141.3544,Japan,1958756
396,Jixi,45.2937,130.965,China,1950000
397,Caracas,10.5,-66.9333,Venezuela,1943901
398,Fuxin,42.0127,121.6486,China,1930000
399,Leeds,53.7997,-1.5492,United Kingdom,1901934
400,Sacramento,38.5667,-121.4683,United States,1898019
401,Blantyre,-15.7861,35.0058,Malawi,1895973
402,Tainan,22.9833,120.1833,Taiwan,1883831
403,Bucharest,44.4,26.0833,Romania,1883425
404,Wuwei,37.9278,102.6329,China,1890000
405,Bhopal,23.25,77.4167,India,1883381
406,Curitiba,-25.4297,-49.2719,Brazil,1879355
407,Xiping,40.08,113.3,China,1873000
408,Asuncion,-25.3,-57.6333,Paraguay,1870000
409,Saidu Sharif,34.75,72.3572,Pakistan,1860310
410,Vienna,48.2083,16.3731,Austria,1840573
411,Aleppo,36.2,37.15,Syria,1834093
412,Hamburg,53.55,10,Germany,1841179
413,Meru,0.05,37.65,Kenya,1833000
414,Brazzaville,-4.2667,15.2833,Congo (Brazzaville),1827000
415,Orlando,28.4772,-81.3369,United States,1822394
416,Mersin,36.8,34.6167,Turkey,1814468
417,Almaty,43.25,76.9,Kazakhstan,1806833
418,Barranquilla,10.96,-74.8,Colombia,1798000
419,Kyoto,35.0111,135.7669,Japan,1805000
420,Manaus,-3.1,-60.0167,Brazil,1802014
421,Liaoyang,41.2643,123.1772,China,1800000
422,Baiyin,36.5448,104.1766,China,1799000
423,San Jose,37.3019,-121.8486,United States,1798103
424,Warsaw,52.2167,21.0333,Poland,1790658
425,Shengli,37.45,118.4667,China,1790000
426,Lubumbashi,-11.6697,27.4581,Congo (Kinshasa),1786397
427,Damascus,33.5131,36.2919,Syria,1754000
428,Shuyangzha,34.1299,118.7734,China,1770000
429,Shangqiu,34.4504,115.65,China,1753000
430,Esfahan,32.6447,51.6675,Iran,1756126
431,Budapest,47.4983,19.0408,Hungary,1752286
432,Heihe,50.2458,127.4886,China,1750000
433,Lusaka,-15.4167,28.2833,Zambia,1742979
434,Diyarbakir,37.9108,40.2367,Turkey,1732396
435,Chinchvad,18.6278,73.8131,India,1729320
436,Shuozhou,39.3408,112.4292,China,1714857
437,Vitoria,-20.324,-40.366,Brazil,1704000
438,Cleveland,41.4767,-81.6804,United States,1710093
439,Pittsburgh,40.4396,-79.9762,United States,1703266
440,Mecca,21.4225,39.8261,Saudi Arabia,1700000
441,Patna,25.61,85.1414,India,1684222
442,Mosul,36.3667,43.1167,Iraq,1694000
443,Austin,30.3004,-97.7522,United States,1687311
444,Sanzhou,30.82,108.4,China,1680000
445,Conakry,9.5092,-13.7122,Guinea,1667864
446,Kampala,0.3136,32.5811,Uganda,1659600
447,Ecatepec,19.6097,-99.06,Mexico,1656107
448,Cincinnati,39.1413,-84.5061,United States,1662691
449,Makassar,-5.1331,119.4136,Indonesia,1651146
450,Yushan,31.3867,120.9766,China,1651200
451,Ludhiana,30.9083,75.8486,India,1649000
452,Newcastle,55.0077,-1.6578,United Kingdom,1650000
453,Depok,-6.394,106.8225,Indonesia,1631951
454,Zhongli,24.965,121.2168,Taiwan,1632616
455,Kansas City,39.1239,-94.5541,United States,1636715
456,Rabat,34.0253,-6.8361,Morocco,1628000
457,Ouagadougou,12.3572,-1.5353,Burkina Faso,1626950
458,Davao,7.0667,125.6,Philippines,1632991
459,Manhattan,40.7834,-73.9662,United States,1628706
460,Semarang,-6.9667,110.4167,Indonesia,1621384
461,Yinchuan,38.4795,106.2254,China,1616000
462,Multan,30.1978,71.4711,Pakistan,1606481
463,Caloocan City,14.65,120.9667,Philippines,1583978
464,Harare,-17.8292,31.0522,Zimbabwe,1606000
465,Novosibirsk,55.0333,82.9167,Russia,1602915
466,Chengtangcun,35.0833,117.15,China,1603659
467,Agra,27.18,78.02,India,1585705
468,Karaj,35.8327,50.9915,Iran,1592492
469,Indianapolis,39.7771,-86.1458,United States,1588961
470,Jingdezhen,29.2942,117.2036,China,1587477
471,Puebla,19.0333,-98.1833,Mexico,1576259
472,Kalyan,19.2502,73.1602,India,1576614
473,Madurai,9.9197,78.1194,India,1561129
474,Gujranwala,32.15,74.1833,Pakistan,1569090
475,Benxi,41.292,123.761,China,1567000
476,Jamshedpur,22.8,86.1833,India,1558000
477,Zhuhai,22.2769,113.5678,China,1562000
478,Recife,-8.0539,-34.8808,Brazil,1555039
479,Columbus,39.9862,-82.985,United States,1562009
480,Tabriz,38.0833,46.2833,Iran,1558693
481,Santiago,19.5,-70.67,Dominican Republic,1550753
482,Maracaibo,10.6333,-71.6333,Venezuela,1551539
483,Beihai,21.4667,109.1,China,1539251
484,Shuangyashan,46.6388,131.1545,China,1530000
485,Kobe,34.6913,135.183,Japan,1522944
486,Charlotte,35.208,-80.8304,United States,1512923
487,Yucheng,29.9888,103.0007,China,1512000
488,Changshu,31.65,120.7333,China,1510100
489,Ximeicun,24.9633,118.3811,China,1508000
490,Jianguang,28.1958,115.7833,China,1507402
491,Gwangju,35.1667,126.9167,"Korea, South",1501557
492,Xushan,30.1697,121.2665,China,1502000
493,Guiping,23.4,110.0833,China,1496904
494,Nasik,20,73.7833,India,1486053
495,Porto Alegre,-30.0328,-51.23,Brazil,1484941
496,Zhangjiajie,29.1255,110.4844,China,1486000
497,Valencia,10.1667,-68,Venezuela,1484430
498,Virginia Beach,36.7335,-76.0435,United States,1478868
499,Daejeon,36.351,127.385,"Korea, South",1475221
500,Munich,48.1372,11.5755,Germany,1471508
501,Yekaterinburg,56.8356,60.6128,Russia,1468833
502,Auckland,-36.85,174.7833,New Zealand,1467800
503,Yunfu,22.9242,112.0353,China,1470000
504,Huangshan,29.7132,118.3151,China,1470000
505,Huazhou,32.6832,112.079,China,1468061
506,Shiraz,29.61,52.5425,Iran,1460665
507,Leon de los Aldama,21.1167,-101.6833,Mexico,1454793
508,Pizhou,34.3422,118.0097,China,1458038
509,Palembang,-2.9833,104.7644,Indonesia,1452456
510,Kharkiv,50,36.2292,Ukraine,1446107
511,Kawanakajima,35.53,139.705,Japan,1437266
512,Lianjiang,21.6146,110.2794,China,1443099
513,Chizhou,30.6583,117.4849,China,1430000
514,Leizhou,20.9147,110.0806,China,1427664
515,Guyuan,36.008,106.2782,China,1426000
516,Rui'an,27.778,120.6526,China,1424667
517,Birstall,52.6736,-1.12,United Kingdom,1424216
518,Muscat,23.6139,58.5922,Oman,1421409
519,Hebi,35.7497,114.2887,China,1419000
520,Jingling,30.6667,113.1667,China,1418913
521,Bronx,40.8501,-73.8662,United States,1418207
522,The Hague,52.08,4.27,Netherlands,1406000
523,Owerri,5.4833,7.0333,Nigeria,1401873
524,Sharjah,25.3575,55.3919,United Arab Emirates,1400000
525,Faridabad,28.4333,77.3167,India,1394000
526,Ulaanbaatar,47.9203,106.9172,Mongolia,1396288
527,Goiania,-16.6789,-49.2539,Brazil,1393575
528,Belem,-1.4558,-48.5039,Brazil,1393399
529,Kayseri,38.7333,35.4833,Turkey,1389680
530,Yueqing,28.1188,120.9621,China,1389332
531,Belgrade,44.8167,20.4667,Serbia,1378682
532,Pingdu,36.7833,119.9556,China,1378900
533,Aurangabad,19.88,75.32,India,1371330
534,Yutan,28.3147,112.554,China,1368117
535,Wenling,28.3797,121.3718,China,1366794
536,Islamabad,33.6989,73.0369,Pakistan,1365000
537,Milwaukee,43.0642,-87.9673,United States,1365787
538,Milan,45.4669,9.19,Italy,1351562
539,Sofia,42.6975,23.3241,Bulgaria,1355142
540,Adelaide,-34.9289,138.6011,Australia,1345777
541,Samsun,41.2867,36.33,Turkey,1335716
542,Rajkot,22.2969,70.7984,India,1335397
543,Khulna,22.8167,89.55,Bangladesh,1311100
544,Cordoba,-31.4167,-64.1833,Argentina,1329604
545,Guarulhos,-23.4667,-46.5333,Brazil,1324781
546,Juarez,31.7386,-106.487,Mexico,1321004
547,Prague,50.0833,14.4167,Czechia,1324277
548,Montevideo,-34.8667,-56.1667,Uruguay,1319108
549,Mbuji-Mayi,-6.1209,23.5967,Congo (Kinshasa),1295000
550,Fuqing,25.7232,119.3735,China,1316000
551,Xintai,35.91,117.78,China,1315942
552,Doha,25.3,51.5333,Qatar,1312947
553,Saitama,35.8617,139.6453,Japan,1307931
554,Hiroshima,34.3853,132.4553,Japan,1306589
555,Meerut,28.99,77.7,India,1305429
556,Yushu,44.8249,126.5451,China,1304436
557,Rongcheng,26.2312,104.0966,China,1302891
558,Yangquan,37.8576,113.5762,China,1300000
559,Haicheng,40.8523,122.7474,China,1293877
560,Gaozhou,21.9392,110.8461,China,1288665
561,Yingtan,28.2333,117,China,1288615
562,Huaiyin,33.58,119.03,China,1264000
563,Wuzhong,37.9874,106.1919,China,1284000
564,Jabalpur,23.1667,79.9333,India,1267564
565,Thane,19.18,72.9633,India,1261517
566,Zhangye,38.9355,100.4553,China,1270000
567,Rucheng,32.3852,120.5634,China,1267066
568,Nizhniy Novgorod,56.3269,44.0075,Russia,1264075
569,Comayaguela,14.0833,-87.2167,Honduras,1250000
570,Yangshe,31.8775,120.5512,China,1253100
571,Shaoyang,32.9387,119.8404,China,1253548
572,Dhanbad,23.7928,86.435,India,1246000
573,Yichun,47.7235,128.8893,China,1250000
574,Laiwu,36.1833,117.6667,China,1248636
575,Kazan',55.7908,49.1144,Russia,1243500
576,Dayan,26.8808,100.2208,China,1244769
577,Suwon,37.2858,127.01,"Korea, South",1234300
578,Jiangyin,31.9087,120.2653,China,1241045
579,Yongcheng,33.9317,116.4459,China,1240382
580,Calgary,51.05,-114.0667,Canada,1239220
581,Can Tho,10.0333,105.7833,Vietnam,1237300
582,Abuja,9.0556,7.4914,Nigeria,1235880
583,Yiwu,29.3081,120.0698,China,1234015
584,Mandalay,21.9769,96.0869,Burma,1225546
585,Beidao,34.6,105.92,China,1225000
586,Al Basrah,30.4889,47.81,Iraq,1225793
587,Shuangshui,26.5944,104.8333,China,1221000
588,Sevilla,37.3828,-5.9731,Spain,1212045
589,Vila Velha,3.2167,-51.2167,Brazil,1209091
590,Allahabad,25.455,81.84,India,1201000
591,Varanasi,25.3189,83.0128,India,1198491
592,Tunis,36.8008,10.18,Tunisia,1200000
593,Chelyabinsk,55.15,61.4,Russia,1202371
594,Mombasa,-4.05,39.6667,Kenya,1200000
595,Providence,41.823,-71.4187,United States,1203230
596,Qom,34.6461,50.8789,Iran,1201158
597,Maiduguri,11.8333,13.15,Nigeria,1197497
598,Maputo,-25.9153,32.5764,Mozambique,1191613
599,Rosario,-32.9575,-60.6394,Argentina,1193605
600,Benin City,6.3176,5.6145,Nigeria,1190000
601,Xinyu,27.795,114.9242,China,1186700
602,Ahvaz,31.3203,48.6692,Iran,1184788
603,Dublin,53.3425,-6.2658,Ireland,1173179
604,Jacksonville,30.3322,-81.6749,United States,1181496
605,Medina,24.4667,39.6,Saudi Arabia,1180770
606,Srinagar,34.0911,74.8061,India,1180570
607,Omsk,54.9667,73.3833,Russia,1178391
608,Huazhou,21.654,110.6294,China,1178809
609,Cilacap,-7.7167,109.017,Indonesia,1174964
610,Xiantao,30.3833,113.4,China,1175085
611,Bandar Lampung,-5.4294,105.2625,Indonesia,1166761
612,Samara,53.1833,50.1167,Russia,1169719
613,Guankou,28.1417,113.625,China,1168056
614,Ulsan,35.55,129.3167,"Korea, South",1166033
615,Dingzhou,38.5158,114.9845,China,1165182
616,Campinas,-22.9009,-47.0573,Brazil,1164098
617,Lianyuan,27.6961,111.6659,China,1162928
618,Rongcheng,29.8239,112.9019,China,1162770
619,Kaiyuan,36.0656,113.8153,China,1160000
620,Nay Pyi Taw,19.8028,96.1583,Burma,1160242
621,Dakar,14.7319,-17.4572,Senegal,1146053
622,Zhuji,29.7169,120.2314,China,1157938
623,Zapopan,20.7167,-103.4,Mexico,1155790
624,Leiyang,26.4179,112.8457,China,1151554
625,Dadukou,26.5849,101.7149,China,1144000
626,Quetta,30.192,67.007,Pakistan,1140000
627,Amritsar,31.6167,74.85,India,1132383
628,Callao,-12.0611,-77.1333,Peru,1129854
629,Aligarh,27.88,78.08,India,1131160
630,Yingchuan,34.1511,113.4733,China,1131896
631,Tegucigalpa,14.0942,-87.2067,Honduras,1126534
632,Ciudad Nezahualcoyotl,19.41,-99.03,Mexico,1109363
633,Tripoli,32.8752,13.1875,Libya,1126000
634,Rostov,47.2333,39.7167,Russia,1125299
635,Nezahualcoyotl,19.4,-98.9889,Mexico,1110565
636,Bhiwandi,19.3,73.0667,India,1125898
637,Zhoushan,30.0162,122.0988,China,1121261
638,Tbilisi,41.7225,44.7925,Georgia,1118035
639,Ufa,54.7333,55.9667,Russia,1115560
640,Fes,34.0433,-5.0033,Morocco,1112072
641,Bien Hoa,10.9575,106.8426,Vietnam,1104000
642,Mexicali,32.6633,-115.4678,Mexico,1102342
643,Gwalior,26.215,78.1931,India,1101981
644,Ankang,32.6877,109.0235,China,1100000
645,Ikare,7.5304,5.76,Nigeria,1099931
646,Hegang,47.3139,130.2775,China,1100000
647,Salt Lake City,40.7777,-111.9306,United States,1098526
648,Bhilai,21.2167,81.4333,India,1097000
649,Yuyao,30.0372,121.1546,China,1095000
650,N'Djamena,12.11,15.05,Chad,1092066
651,Hanchuan,30.652,113.8274,China,1092700
652,Gongzhuling,43.5036,124.8088,China,1092692
653,Copenhagen,55.6786,12.5635,Denmark,1085000
654,Irbid,32.5556,35.85,Jordan,1088100
655,Haora,22.59,88.31,India,1077075
656,Cologne,50.9422,6.9578,Germany,1085664
657,Krasnoyarsk,56.0167,92.8667,Russia,1083865
658,Yicheng,31.3697,119.8239,China,1082929
659,Mizhou,36,119.4167,China,1081960
660,Nashville,36.1715,-86.7843,United States,1081903
661,Yerevan,40.1814,44.5144,Armenia,1075800
662,Ranchi,23.3556,85.3347,India,1073440
663,Nur-Sultan,51.1333,71.4333,Kazakhstan,1078362
664,Nouakchott,18.0783,-15.9744,Mauritania,1077169
665,Vereeniging,-26.6736,27.9319,South Africa,1074000
666,Richmond,37.5295,-77.4756,United States,1075798
667,Sao Luis,-2.53,-44.3028,Brazil,1073893
668,San Pedro Sula,15.5,-88.0333,Honduras,1073824
669,Taixing,32.1724,120.0142,China,1073921
670,Memphis,35.1046,-89.9773,United States,1066967
671,Goyang,37.6564,126.835,"Korea, South",1061929
672,Bezwada,16.5167,80.6167,India,1048240
673,Edmonton,53.5344,-113.4903,Canada,1062643
674,Xishan,27.6609,113.4946,China,1060000
675,Barquisimeto,10.0678,-69.3467,Venezuela,1059092
676,Sendai,38.2683,140.8694,Japan,1058070
677,Voronezh,51.6717,39.2106,Russia,1047549
678,Changwon,35.2281,128.6811,"Korea, South",1046054
679,Zhongwei,37.5139,105.1884,China,1046000
680,Shouguang,36.8833,118.7333,China,1039205
681,Bogor,-6.6,106.8,Indonesia,1030720
682,Raleigh,35.8325,-78.6435,United States,1038738
683,Cartagena,10.4236,-75.5253,Colombia,1036412
684,Chandigarh,30.7353,76.7911,India,1026459
685,Bishkek,42.8667,74.5667,Kyrgyzstan,1027200
686,Amsterdam,52.35,4.9166,Netherlands,1031000
687,Matola,-25.9667,32.4667,Mozambique,1032197
688,Ogbomoso,8.1333,4.25,Nigeria,1032000
689,Ashgabat,37.95,58.3833,Turkmenistan,1031992
690,E'zhou,30.3972,114.8842,China,1031000
691,Maceio,-9.6658,-35.735,Brazil,1029129
692,Niamey,13.5086,2.1111,Niger,1026848
693,Managua,12.15,-86.2667,Nicaragua,1028808
694,Patam,1.0678,104.0167,Indonesia,1029808
695,Tekirdag,40.9833,27.5167,Turkey,1029927
696,Linhai,28.8523,121.1409,China,1028813
697,Shubra al Khaymah,30.1286,31.2422,Egypt,1025569
698,Monrovia,6.3106,-10.8047,Liberia,1021762
699,Wafangdian,39.6271,121.9972,China,1024876
700,Zhongxiang,31.169,112.5853,China,1022514
701,Shymkent,42.3,69.6,Kazakhstan,1018974
702,New Orleans,30.0687,-89.9288,United States,1020886
703,Volgograd,48.7,44.4833,Russia,1015586
704,Port-au-Prince,18.5425,-72.3386,Haiti,987310
705,Mysore,12.3086,76.6531,India,1014227
706,Odesa,46.4775,30.7326,Ukraine,1010783
707,Kathmandu,27.7167,85.3667,Nepal,975453
708,Raipur,21.2379,81.6337,India,1010087
709,Nice,43.7034,7.2663,France,1006402
710,Arequipa,-16.3988,-71.5369,Peru,1008290
711,Port Harcourt,4.75,7,Nigeria,1005904
712,Rotterdam,51.92,4.48,Netherlands,1005000
713,Louisville,38.1663,-85.6485,United States,1005654
714,Zaoyang,32.1287,112.7581,China,1004741
715,Shuizhai,33.4433,114.8994,China,1003698
716,Kota,25.18,75.83,India,1001694
717,Abu Dhabi,24.4781,54.3686,United Arab Emirates,1000000
718,Stockholm,59.3294,18.0686,Sweden,972647
719,Ottawa,45.4247,-75.695,Canada,989567
720,Asmara,15.3333,38.9167,Eritrea,963000
721,Freetown,8.4833,-13.2331,Sierra Leone,951000
722,Jerusalem,31.7833,35.2167,Israel,919438
723,Panama City,9,-79.5,Panama,880691
724,Lome,6.1319,1.2228,Togo,837437
725,Libreville,0.3901,9.4544,Gabon,797003
726,Zagreb,45.8,15.95,Croatia,790017
727,Dushanbe,38.5731,68.7864,Tajikistan,780000
728,Lilongwe,-13.9833,33.7833,Malawi,781538
729,Cotonou,6.4,2.52,Benin,762000
730,Vientiane,17.9667,102.6,Laos,760000
731,Colombo,6.9167,79.8333,Sri Lanka,752993
732,Kigali,-1.9536,30.0606,Rwanda,745261
733,Pretoria,-25.7464,28.1881,South Africa,741651
734,Bangui,4.3732,18.5628,Central African Republic,734350
735,Winnipeg,49.8844,-97.1464,Canada,705244
736,Quebec City,46.8139,-71.2081,Canada,705103
737,Riga,56.9475,24.1069,Latvia,698529
738,Oslo,59.9111,10.7528,Norway,693494
739,Chisinau,47.0056,28.8575,Moldova,685900
740,Athens,37.9794,23.7161,Greece,664046
741,Bujumbura,-3.3825,29.3611,Burundi,658859
742,Helsinki,60.1756,24.9342,Finland,642045
743,Skopje,41.9833,21.4333,Macedonia,640000
744,Kuwait City,29.375,47.98,Kuwait,637411
745,Kingston,17.9714,-76.7931,Jamaica,580000
746,Vilnius,54.6833,25.2833,Lithuania,574147
747,San Salvador,13.6989,-89.1914,El Salvador,567698
748,Djibouti,11.595,43.1481,Djibouti,562000
749,Lisbon,38.7452,-9.1604,Portugal,506654
750,Kitchener,43.4186,-80.4728,Canada,470015
751,Tallinn,59.4372,24.745,Estonia,434562
752,Cape Town,-33.925,18.425,South Africa,433688
753,Bratislava,48.1447,17.1128,Slovakia,429564
754,Tirana,41.33,19.82,Albania,418495
755,Canberra,-35.2931,149.1269,Australia,426704
756,Wellington,-41.2889,174.7772,New Zealand,418500
757,Beirut,33.8869,35.5131,Lebanon,361366
758,Dodoma,-6.25,35.75,Tanzania,410956
759,Halifax,44.6475,-63.5906,Canada,403131
760,Bissau,11.8592,-15.5956,Guinea-Bissau,395954
761,Juba,4.85,31.6,South Sudan,372410
762,Port Moresby,-9.4789,147.1494,Papua New Guinea,364125
763,Yamoussoukro,6.8161,-5.2742,C“te D?Ivoire,355573
764,Victoria,48.4283,-123.3647,Canada,335696
765,Maseru,-29.31,27.48,Lesotho,330790
766,Nicosia,35.1725,33.365,Cyprus,330000
767,Windhoek,-22.57,17.0836,Namibia,322500
768,Porto-Novo,6.4833,2.6167,Benin,300000
769,Sucre,-19.0431,-65.2592,Bolivia,300000
770,San Jose,9.9333,-84.0833,Costa Rica,288054
771,Ljubljana,46.05,14.5167,Slovenia,284355
772,Sarajevo,43.8667,18.4167,Bosnia And Herzegovina,275524
773,Nassau,25.0667,-77.3333,"Bahamas, The",274400
774,Bloemfontein,-29.1,26.2167,South Africa,256185
775,Gaborone,-24.6569,25.9086,Botswana,231626
776,Paramaribo,5.8667,-55.1667,Suriname,223757
777,Dili,-8.5586,125.5736,Timor-Leste,222323
778,Pristina,42.6667,21.1667,Kosovo,204725
779,Georgetown,6.7833,-58.1667,Guyana,200500
780,Malabo,3.7521,8.7737,Equatorial Guinea,187302
781,Brussels,50.8467,4.3517,Belgium,185103
782,Male,4.175,73.5083,Maldives,133019
783,Podgorica,42.4397,19.2661,Montenegro,174515
784,Manama,26.2167,50.5831,Bahrain,157474
785,Port Louis,-20.1667,57.5,Mauritius,149194
786,New Delhi,28.7,77.2,India,142004
787,Bern,46.948,7.4474,Switzerland,133798
788,Reykjavik,64.1475,-21.935,Iceland,128793
789,Praia,14.9177,-23.5092,Cabo Verde,127832
790,Luxembourg,49.6106,6.1328,Luxembourg,122273
791,Sri Jayewardenepura Kotte,6.9,79.9164,Sri Lanka,115826
792,Bridgetown,13.0975,-59.6167,Barbados,110000
793,Moroni,-11.7036,43.2536,Comoros,111329
794,Thimphu,27.4833,89.6333,Bhutan,104000
795,Mbabane,-26.3167,31.1333,Swaziland,90138
796,Honiara,-9.4333,159.95,Solomon Islands,84520
797,Suva,-18.1333,178.4333,Fiji,88271
798,Castries,14.0167,-60.9833,Saint Lucia,70000
799,Sao Tome,0.3333,6.7333,Sao Tome And Principe,56166
800,Port-Vila,-17.75,168.3,Vanuatu,51437
801,Bandar Seri Begawan,4.9167,114.9167,Brunei,50000
802,Monaco,43.7396,7.4069,Monaco,36371
803,Gitega,-3.4264,29.9306,Burundi,41944
804,Port of Spain,10.6667,-61.5167,Trinidad And Tobago,37074
805,Apia,-13.8333,-171.8333,Samoa,37708
806,Vaduz,47.1415,9.5215,Liechtenstein,36281
807,Banjul,13.4531,-16.5775,"Gambia, The",31356
808,Tarawa,1.3382,173.0176,Kiribati,28802
809,Victoria,-4.6236,55.4544,Seychelles,26450
810,Majuro,7.1167,171.3667,Marshall Islands,25400
811,Kingstown,13.1667,-61.2333,Saint Vincent And The Grenadines,25418
812,Nuku`alofa,-21.1347,-175.2083,Tonga,24571
813,Saint John's,17.1211,-61.8447,Antigua And Barbuda,21926
814,Andorra la Vella,42.5,1.5,Andorra,22151
815,Belmopan,17.25,-88.7675,Belize,17222
816,Roseau,15.3,-61.3833,Dominica,16582
817,Basseterre,17.2983,-62.7342,Saint Kitts And Nevis,13220
818,Pago Pago,-14.274,-170.7046,American Samoa,12576
819,Valletta,35.8978,14.5125,Malta,6444
820,Palikir,6.9178,158.185,"Micronesia, Federated States Of",6227
821,Funafuti,-8.5167,179.2167,Tuvalu,6025
822,Lobamba,-26.4167,31.1667,Swaziland,5800
823,Saint George's,12.0444,-61.7417,Grenada,4315
824,San Marino,43.932,12.4484,San Marino,4040
825,Al Quds,31.7764,35.2269,West Bank,NULL
826,Capitol Hill,15.2137,145.7546,Northern Mariana Islands,2500
827,Hagta,13.4745,144.7504,Guam,1051
828,Ngerulmud,7.5006,134.6242,Palau,NULL
829,Bareilly,28.364,79.415,India,1000000
830,Quang Ha,16.06,108.25,Vietnam,1000000
831,Kitaku,33.8704,130.82,Japan,997536
832,Jodhpur,26.2918,73.0168,India,995000
833,Xingcheng,24.1681,115.6669,China,993000
834,Dongtai,32.8534,120.3037,China,990306
835,Joinvile,-26.32,-48.8399,Brazil,988000
836,Yingcheng,24.1876,113.4042,China,986400
837,Dnipro,48.45,34.9833,Ukraine,983836
838,Glasgow,55.8609,-4.2514,United Kingdom,985290
839,Chiba,35.6,140.1,Japan,980203
840,Danyang,31.9948,119.575,China,980662
841,Natal,-6.9838,-60.2699,Brazil,980588
842,Naples,40.8333,14.25,Italy,972212
843,Zhaodong,46.0635,125.9773,China,980000
844,Xibeijie,39.737,98.5049,China,977600
845,Kirkuk,35.4667,44.4,Iraq,975000
846,Huilong,31.8131,121.6574,China,972525
847,Tongjin,37.2361,127.2011,"Korea, South",971327
848,Oklahoma City,35.4676,-97.5136,United States,972943
849,Toulouse,43.6045,1.444,France,968638
850,Denizli,37.7731,29.0878,Turkey,963464
851,Dispur,26.15,91.77,India,957352
852,Coimbatore,11,76.9667,India,959823
853,Luocheng,22.7645,111.5745,China,959006
854,Guwahati,26.1667,91.7667,India,957352
855,Shima,24.4475,117.8118,China,956400
856,Songnam,37.4386,127.1378,"Korea, South",948757
857,Solapur,17.6833,75.9167,India,951558
858,Tangier,35.7847,-5.8125,Morocco,947952
859,Anqiu,36.3619,119.1072,China,947723
860,Feicheng,36.186,116.772,China,946627
861,Taishan,22.2486,112.785,China,941095
862,Meishan,34.1736,112.839,China,936000
863,Kisangani,0.5153,25.1911,Congo (Kinshasa),935977
864,Khartoum North,15.6333,32.6333,Sudan,936349
865,Aguascalientes,21.876,-102.296,Mexico,934424
866,Marrakech,31.6295,-7.9811,Morocco,928850
867,Nada,19.5,109.5833,China,932356
868,Donetsk,48.0089,37.8042,Ukraine,929063
869,Taihecun,45.768,131.0063,China,930000
870,Wuchuan,21.4571,110.7659,China,927275
871,Trujillo,-8.1119,-79.0289,Peru,919899
872,Cebu City,10.3,123.9,Philippines,922611
873,Taihe,30.8706,105.3784,China,924531
874,Olinda,-8,-34.85,Brazil,921840
875,Bridgeport,41.1918,-73.1953,United States,924449
876,Trichinopoly,10.8269,78.6928,India,916857
877,Xin'an,34.3662,118.3369,China,920628
878,Padang,-0.9556,100.3606,Indonesia,914970
879,Qingzhou,36.6967,118.4797,China,914047
880,Buffalo,42.9016,-78.8487,United States,914341
881,Xinyi,22.3559,110.9369,China,913708
882,Lichuan,30.2965,108.9378,China,913700
883,Daye,30.1003,114.9699,China,909724
884,Fort Worth,32.7811,-97.3473,United States,909585
885,Zhuanghe,39.6896,122.9664,China,905852
886,Hartford,41.7661,-72.6834,United States,905152
887,Ad Dammam,26.4333,50.1,Saudi Arabia,903312
888,Bucheon,37.4989,126.7831,"Korea, South",867678
889,Lhasa,29.65,91.1,China,902500
890,Homs,34.7333,36.7167,Syria,900492
891,Jiaozhou,36.2481,119.9625,China,900500
892,Merida,20.97,-89.62,Mexico,892363
893,Dengtalu,36.08,114.35,China,887000
894,Zaria,11.0667,7.7,Nigeria,889000
895,Hubli,15.36,75.125,India,890000
896,Abeokuta,7.15,3.35,Nigeria,888924
897,Tucson,32.1545,-110.8782,United States,888486
898,Krasnodar,45.0333,38.9833,Russia,881476
899,Natal,-5.795,-35.2089,Brazil,877662
900,Novo Hamburgo,-29.7096,-51.14,Brazil,876990
901,Chihuahua,28.6353,-106.0889,Mexico,878062
902,Klang,3.0333,101.45,Malaysia,878000
903,Turin,45.0667,7.7,Italy,870952
904,Jos,9.9333,8.8833,Nigeria,873943
905,Laiyang,36.9758,120.7136,China,874127
906,Jalandhar,31.3256,75.5792,India,873725
907,Campo Grande,-20.4686,-54.6222,Brazil,874210
908,Sale,34.05,-6.8167,Morocco,850403
909,Barinas,8.6333,-70.2167,Venezuela,873962
910,Marseille,43.2964,5.37,France,870018
911,Kaifeng Chengguanzhen,34.85,114.35,China,872000
912,Eskisehir,39.7767,30.5206,Turkey,871187
913,Gaomi,36.3833,119.75,China,868715
914,Ipoh,4.6,101.07,Malaysia,866772
915,Hai'an,32.532,120.4604,China,866337
916,Liverpool,53.4,-2.9833,United Kingdom,864122
917,Zamboanga City,6.9167,122.0833,Philippines,861799
918,Oran,35.6969,-0.6331,Algeria,852000
919,Southampton,50.9,-1.4,United Kingdom,855569
920,Weichanglu,37.1792,119.9333,China,859424
921,Pekanbaru,0.5333,101.45,Indonesia,855221
922,Portsmouth,50.8058,-1.0872,United Kingdom,855679
923,Leping,28.9632,117.1203,China,852800
924,Erbil,36.1911,44.0094,Iraq,852500
925,Kermanshah,34.3167,47.0686,Iran,851405
926,Hailun,47.4585,126.9632,China,850000
927,Yangchun,22.1667,111.7833,China,849504
928,Macheng,31.1817,115.0189,China,849090
929,Ilorin,8.5,4.55,Nigeria,847582
930,Teresina,-5.0949,-42.8042,Brazil,847430
931,Omaha,41.2627,-96.0522,United States,847819
932,Yuci,37.6804,112.73,China,840000
933,Saratov,51.5333,46,Russia,845300
934,Iguacu,-22.74,-43.47,Brazil,844583
935,El Paso,31.8479,-106.4309,United States,843386
936,Denpasar,-8.6667,115.2167,Indonesia,834881
937,Dehui,44.5323,125.6965,China,839786
938,Naucalpan de Juarez,19.4753,-99.2378,Mexico,833779
939,Bhubaneshwar,20.2644,85.8281,India,837737
940,Tongchuan,34.9057,108.9422,China,835600
941,Cheongju,36.6372,127.4897,"Korea, South",833276
942,Warri,5.5167,5.75,Nigeria,830106
943,Pointe-Noire,-4.7889,11.8653,Congo (Brazzaville),829134
944,Rongjiawan,29.3801,113.1,China,826000
945,San Luis Potosi,22.1511,-100.9761,Mexico,824229
946,Butterworth,5.3942,100.3664,Malaysia,821652
947,Bhayandar,19.3,72.85,India,814655
948,Renqiu,38.7094,116.1008,China,822455
949,Toluca,19.2925,-99.6569,Mexico,819561
950,Honolulu,21.3294,-157.846,United States,820987
951,Queretaro,20.5875,-100.3928,Mexico,804663
952,Xindi,29.8182,113.4653,China,819446
953,Wu'an,36.6941,114.1847,China,819000
954,Sao Bernardo do Campo,-23.6939,-46.565,Brazil,816925
955,Hermosillo,29.0989,-110.9542,Mexico,812229
956,Wutong,30.6326,120.5474,China,815848
957,Taguig City,14.5167,121.05,Philippines,804915
958,Saltillo,25.4333,-101,Mexico,807537
959,Gaoyou,32.7847,119.4432,China,811800
960,Hejian,38.4451,116.0897,China,810306
961,Yiyang,26.4103,112.3913,China,810447
962,Puxi,35.2125,114.735,China,809535
963,Zijinglu,34.7513,112.9854,China,807857
964,Xiashi,30.5333,120.6833,China,806966
965,Trabzon,41.005,39.7225,Turkey,807903
966,Joao Pessoa,-7.0833,-34.8333,Brazil,801718
967,Dongyang,29.2785,120.2282,China,804398
968,McAllen,26.2273,-98.2471,United States,804114
969,Valencia,39.4667,-0.375,Spain,794288
970,Qingping,34.538,113.3796,China,797200
971,Niigata,37.9161,139.0364,Japan,796500
972,Hamamatsu,34.7167,137.7333,Japan,791770
973,Morelia,19.7683,-101.1894,Mexico,784776
974,Pasig City,14.575,121.0833,Philippines,755300
975,Moradabad,28.8418,78.7568,India,787000
976,Culiacan,24.8069,-107.3939,Mexico,785800
977,Xiangxiang,27.7389,112.5223,China,787216
978,Malang,-7.98,112.62,Indonesia,780000
979,Xingyi,25.091,104.9011,China,783120
980,Chaohucun,31.6783,117.7353,China,782000
981,Fuyang,30.0533,119.9519,China,771000
982,Antipolo,14.5842,121.1763,Philippines,776386
983,Nottingham,52.95,-1.15,United Kingdom,768638
984,Cencheng,22.9297,111.0186,China,772113
985,Krakow,50.0614,19.9372,Poland,766739
986,Hempstead,40.6629,-73.6089,United States,768057
987,Erzurum,39.9097,41.2756,Turkey,767848
988,Al `Ayn,24.2075,55.7447,United Arab Emirates,766936
989,Songzi,30.1772,111.7732,China,765911
990,Laixi,36.8667,120.5333,China,762900
991,Zhongba,31.7761,104.7406,China,762140
992,Qingnian,36.8494,115.7061,China,760781
993,Albuquerque,35.1053,-106.6464,United States,761195
994,Kaduna,10.5231,7.4403,Nigeria,760084
995,Tlalnepantla,19.5367,-99.1947,Mexico,750224
996,Xinhualu,34.3962,113.7249,China,758079
997,Guangshui,31.6189,113.8229,China,755910
998,Frankfurt,50.1136,8.6797,Germany,753056
999,Samarinda,-0.5022,117.1536,Indonesia,753370
1000,Changhua,24.0667,120.5333,Taiwan,750000
1001,Pietermaritzburg,-29.5833,30.4167,South Africa,750845
1002,Hungnam,39.8231,127.6232,"Korea, North",751322
1003,Kolhapur,16.7,74.2333,India,750000
1004,Ciudad Guayana,8.3596,-62.6517,Venezuela,751331
1005,Cucuta,7.9075,-72.5047,Colombia,750000
1006,Licheng,31.4174,119.4786,China,749522
1007,Thiruvananthapuram,8.5,76.8997,India,743691
1008,Tyumen',57.15,65.5333,Russia,744554
1009,San Cristobal,7.7682,-72.2322,Venezuela,743924
1010,Zaporizhzhia,47.8378,35.1383,Ukraine,741717
1011,Cancun,21.1606,-86.8475,Mexico,743626
1012,Kumamoto,32.8031,130.7078,Japan,739393
1013,Chengguan,35.4599,113.7975,China,740435
1014,Nehe,48.48,124.8738,China,740000
1015,Sokoto,13.0622,5.2339,Nigeria,732178
1016,Birmingham,33.5277,-86.7987,United States,739573
1017,Zunhua,40.1881,117.9593,China,737011
1018,Orumiyeh,37.55,45.1,Iran,736224
1019,Oyo,7.8333,3.9333,Nigeria,736072
1020,Wugang,26.7345,110.6293,China,734870
1021,Shuangqiao,35.0833,112.5833,China,733000
1022,Rennes,48.1147,-1.6794,France,727357
1023,Sizhan,39.0099,106.3694,China,730400
1024,Langzhong,31.5833,105.972,China,728935
1025,Bristol,51.45,-2.5833,United Kingdom,724000
1026,Qian'an,40.0059,118.6973,China,728160
1027,Lviv,49.8419,24.0315,Ukraine,724314
1028,Zouping,36.8625,117.7424,China,726722
1029,Bremen,53.1153,8.7975,Germany,724909
1030,Reynosa,26.0922,-98.2778,Mexico,725793
1031,An Najaf,32.029,44.3396,Iraq,724700
1032,Sagamihara,35.5667,139.3667,Japan,722828
1033,Guli,28.9008,120.0284,China,723490
1034,Sarasota,27.3386,-82.5431,United States,722243
1035,Okayama,34.65,133.9167,Japan,720865
1036,Mississauga,43.6,-79.65,Canada,721599
1037,Lingbao Chengguanzhen,34.5221,110.8786,China,721049
1038,Anlu,31.2575,113.6783,China,720000
1039,Wusong,30.9333,117.7667,China,720000
1040,Dayton,39.7797,-84.1998,United States,718353
1041,Enugu,6.4403,7.4942,Nigeria,715774
1042,George Town,5.4145,100.3292,Malaysia,708127
1043,Jaboatao,-8.1803,-35.0014,Brazil,702621
1044,Santo Andre,-23.6572,-46.5333,Brazil,710210
1045,Xichang,27.8983,102.2706,China,712434
1046,Soledad,10.92,-74.77,Colombia,698852
1047,Chengxiang,31.4515,121.1043,China,709500
1048,Tol'yatti,53.5167,49.4167,Russia,707408
1049,Saharanpur,29.964,77.546,India,705478
1050,Warangal,17.9756,79.6011,India,704570
1051,Osasco,-23.5328,-46.7919,Brazil,694844
1052,Dashiqiao,40.6328,122.5021,China,704891
1053,Latakia,35.5236,35.7917,Syria,700000
1054,Rochester,43.168,-77.6162,United States,703952
1055,Fresno,36.7831,-119.7941,United States,703498
1056,Banjarmasin,-3.3333,114.5833,Indonesia,692793
1057,Salem,11.65,78.1667,India,693236
1058,Changsha,22.3762,112.6877,China,699242
1059,Grenoble,45.1715,5.7224,France,687985
1060,Shishi,24.7355,118.6434,China,693000
1061,Guadalupe,25.6775,-100.2597,Mexico,691931
1062,Aracaju,-10.9111,-37.0717,Brazil,685356
1063,Bauchi,10.3158,9.8442,Nigeria,693700
1064,Hamilton,43.2567,-79.8692,Canada,693645
1065,Lodz,51.7769,19.4547,Poland,690422
1066,Miluo Chengguanzhen,28.8049,113.0745,China,692080
1067,Gaizhou,40.4019,122.3499,China,691595
1068,Shizuoka,34.9756,138.3825,Japan,691185
1069,Malegaon,20.55,74.55,India,690844
1070,Karbala',32.6167,44.0333,Iraq,690100
1071,Leling,37.7333,117.2167,China,689867
1072,Sao Jose dos Campos,-23.1789,-45.8869,Brazil,688597
1073,Jianshe,34.2189,113.7693,China,687130
1074,Acapulco de Juarez,16.8636,-99.8825,Mexico,687608
1075,Sheffield,53.3833,-1.4667,United Kingdom,685368
1076,Jingcheng,32.0058,120.2547,China,684360
1077,City of Paranaque,14.4667,121.0167,Philippines,665822
1078,Kochi,9.9667,76.2833,India,677381
1079,Allentown,40.5961,-75.4756,United States,683794
1080,Bahawalpur,29.3956,71.6722,Pakistan,681696
1081,Tasikmalaya,-7.3333,108.2,Indonesia,678027
1082,Macau,22.203,113.545,Macau,568700
1083,Torreon,25.5394,-103.4486,Mexico,679288
1084,Xinmin,41.9952,122.8224,China,680000
1085,Shanhu,29.5908,120.8176,China,679762
1086,Zhongshu,27.8116,106.4133,China,679624
1087,Xigaze,29.2649,88.8799,China,679771
1088,Gold Coast,-28.0167,153.4,Australia,679127
1089,Palermo,38.1157,13.3613,Italy,674435
1090,Cagayan de Oro,8.4833,124.65,Philippines,675950
1091,Gorakhpur,26.7611,83.3667,India,673446
1092,Pinghu,30.7005,121.0104,China,671834
1093,Guankou,30.9933,103.624,China,671200
1094,Tulsa,36.1284,-95.9042,United States,671033
1095,Yatou,37.1653,122.4867,China,670251
1096,Songyang,34.4161,113.0424,China,668592
1097,Cape Coral,26.6446,-81.9956,United States,668382
1098,Ch'ongjin,41.8,129.7831,"Korea, North",667929
1099,Sao Jose dos Pinhais,-25.57,-49.18,Brazil,665063
1100,Puyang Chengguanzhen,35.7004,114.98,China,666322
1101,Qionghu,28.8417,112.3595,China,667104
1102,Yanshi Chengguanzhen,34.723,112.7796,China,666696
1103,Ribeirao Preto,-21.1783,-47.8067,Brazil,666323
1104,Dasmarinas,14.3294,120.9367,Philippines,659019
1105,Huambo,-12.7667,15.7333,Angola,665564
1106,Wenchang,31.054,116.9507,China,664455
1107,Shulan,44.4167,126.95,China,663403
1108,Catia La Mar,10.6,-67.0333,Venezuela,661897
1109,Bouake,7.6833,-5.0331,C“te D?Ivoire,659233
1110,As Sulaymaniyah,35.55,45.4333,Iraq,656100
1111,Hwasu-dong,37.2,126.7667,"Korea, South",655350
1112,Jeonju,35.8219,127.1489,"Korea, South",653055
1113,Durango,24.0167,-104.6667,Mexico,654876
1114,Shimoga,13.9304,75.56,India,654055
1115,Ansan,37.3236,126.8219,"Korea, South",652800
1116,Bulawayo,-20.1667,28.5667,Zimbabwe,653337
1117,Xiping,25.6005,103.8166,China,652604
1118,Sanhe,39.9808,117.0701,China,652042
1119,Guntur,16.3,80.45,India,647508
1120,Dali,25.7003,100.1564,China,652045
1121,Concord,37.9722,-122.0016,United States,652308
1122,Tiruppur,11.1075,77.3398,India,650000
1123,Ch'onan,36.8064,127.1522,"Korea, South",651661
1124,Zaragoza,41.6483,-0.883,Spain,649404
1125,Izhevsk,56.85,53.2167,Russia,646277
1126,Guixi,28.2861,117.2083,China,647240
1127,Honcho,35.6947,139.9825,Japan,639107
1128,Sorocaba,-23.5019,-47.4578,Brazil,644919
1129,Villahermosa,17.9892,-92.9281,Mexico,640359
1130,Petaling Jaya,3.1073,101.6067,Malaysia,638516
1131,Wuxue,29.8518,115.5539,China,644247
1132,Utrecht,52.1003,5.12,Netherlands,640000
1133,Kikwit,-5.0333,18.8167,Congo (Kinshasa),637736
1134,Colorado Springs,38.8674,-104.7606,United States,642413
1135,Valenzuela,14.7,120.9833,Philippines,620422
1136,Gaobeidian,39.3257,115.8678,China,640280
1137,Qufu,35.6,116.9833,China,640498
1138,Ruiming,25.8833,116.0333,China,640600
1139,Wroclaw,51.1077,17.0353,Poland,638586
1140,Rasht,37.2833,49.6,Iran,639951
1141,Nantes,47.2181,-1.5528,France,633690
1142,Stuttgart,48.7761,9.1775,Germany,634830
1143,Al Hufuf,25.3608,49.5997,Saudi Arabia,637389
1144,Xinshi,31.0236,113.1079,China,636776
1145,Cochabamba,-17.3935,-66.157,Bolivia,632013
1146,Barnaul,53.3567,83.7872,Russia,633301
1147,Tripoli,34.4333,35.8333,Lebanon,530000
1148,Jin'e,29.3395,105.2868,China,633210
1149,Benghazi,32.1167,20.0667,Libya,631555
1150,Kryvyy Rih,47.9086,33.3433,Ukraine,629695
1151,Yanggok,37.6367,127.2142,"Korea, South",629061
1152,Changping,40.2248,116.1944,China,614821
1153,Raurkela,22.2492,84.8828,India,625831
1154,Halwan,29.8419,31.3342,Egypt,619293
1155,Charleston,32.8153,-79.9628,United States,628377
1156,Chimalhuacan,19.4167,-98.9,Mexico,614453
1157,Xinxing,39.8734,124.1453,China,627475
1158,Suohe,34.7879,113.392,China,626700
1159,Mangalore,12.8703,74.8806,India,623841
1160,Zhuangyuan,37.3,120.8333,China,626683
1161,Ul'yanovsk,54.3167,48.3667,Russia,624518
1162,Irkutsk,52.2833,104.3,Russia,623736
1163,Nanded,19.15,77.3333,India,623708
1164,Bacoor,14.4624,120.9645,Philippines,600609
1165,Pontianak,-0.0206,109.3414,Indonesia,618388
1166,Bazhou,39.1235,116.386,China,622975
1167,Springfield,42.1155,-72.5395,United States,623401
1168,Turpan,42.95,89.1822,China,622903
1169,Dusseldorf,51.2311,6.7724,Germany,619294
1170,Xingtai,37.0659,114.4753,China,611739
1171,Meihekou,42.5279,125.678,China,618251
1172,Jurong,31.9579,119.1595,China,617706
1173,Zhugang,28.1277,121.2288,China,616346
1174,Khabarovsk,48.4833,135.0667,Russia,616242
1175,Xinji,37.9423,115.2118,China,615919
1176,Hamhung,39.9167,127.5333,"Korea, North",614198
1177,Serang,-6.12,106.1503,Indonesia,613356
1178,Buraydah,26.3333,43.9667,Saudi Arabia,614093
1179,Ta`izz,13.5789,44.0219,Yemen,596672
1180,Montpellier,43.6119,3.8772,France,607896
1181,San Miguel de Tucuman,-26.8167,-65.2167,Argentina,605767
1182,Yaroslavl',57.6167,39.85,Russia,608079
1183,Zhangshu,28.0667,115.5375,China,610424
1184,Grand Rapids,42.962,-85.6562,United States,609314
1185,Vladivostok,43.1167,131.9,Russia,606589
1186,Kuantan,3.8167,103.3333,Malaysia,607778
1187,Cuttack,20.45,85.8667,India,606007
1188,Jambi,-1.59,103.61,Indonesia,602187
1189,Zhuozhou,39.4887,115.9918,China,603535
1190,Uberlandia,-18.9189,-48.2769,Brazil,604013
1191,Gothenburg,57.6717,11.981,Sweden,600473
1192,Tianchang,32.6853,119.0041,China,602840
1193,Canoas,-29.92,-51.18,Brazil,600000
1194,Sargodha,32.0836,72.6711,Pakistan,602631
1195,Las Pinas City,14.45,120.9833,Philippines,588894
1196,Cimahi,-6.8833,107.5333,Indonesia,586580
1197,Kawaguchi,35.8078,139.7242,Japan,592373
1198,Tuxtla,16.7528,-93.1167,Mexico,598710
1199,Balikpapan,-1.1489,116.9031,Indonesia,598043
1200,Qamdo,31.1375,97.1777,China,598862
1201,Durban,-29.8583,31.025,South Africa,595061
1202,Kagoshima,31.58,130.5281,Japan,595319
1203,General Santos,6.1167,125.1667,Philippines,594446
1204,Chanda,19.95,79.3,India,595118
1205,Al Hillah,23.4895,46.7564,Saudi Arabia,594605
1206,Makhachkala,42.9833,47.4833,Russia,592976
1207,Mar del Plata,-38,-57.55,Argentina,593337
1208,Brampton,43.6833,-79.7667,Canada,593638
1209,Luocheng,30.9793,104.28,China,591115
1210,Mission Viejo,33.6095,-117.655,United States,590249
1211,Dortmund,51.5139,7.4653,Germany,587010
1212,Chuxiong,25.0461,101.5436,China,588620
1213,Makati City,14.55,121.0333,Philippines,582602
1214,Albany,42.6664,-73.7987,United States,586383
1215,Shah Alam,3.0833,101.5333,Malaysia,584340
1216,Knoxville,35.9692,-83.9496,United States,586048
1217,Essen,51.4508,7.0131,Germany,583109
1218,Cuiaba,-15.5958,-56.0969,Brazil,585367
1219,Shangzhi,45.2116,127.962,China,585386
1220,Botou,38.06,116.56,China,584308
1221,Bucaramanga,7.1186,-73.1161,Colombia,581130
1222,Anyang,37.3925,126.9269,"Korea, South",573296
1223,Genoa,44.4072,8.934,Italy,580097
1224,Kuiju,36.8528,119.3904,China,581470
1225,Tlaquepaque,20.6167,-103.3167,Mexico,575942
1226,Hachioji,35.6667,139.3167,Japan,577560
1227,Dehra Dun,30.318,78.029,India,578420
1228,At Ta'if,21.2667,40.4167,Saudi Arabia,579970
1229,San Jose del Monte,14.8139,121.0453,Philippines,574089
1230,Bakersfield,35.3529,-119.0359,United States,579295
1231,Ogden,41.2278,-111.9682,United States,578523
1232,Xiulin,29.7211,112.4037,China,577022
1233,Fu'an,27.1,119.6333,China,577000
1234,Malaga,36.7167,-4.4167,Spain,574654
1235,Tomsk,56.4886,84.9522,Russia,572740
1236,Kerman,30.2833,57.0667,Iran,573449
1237,Kingston upon Hull,53.7444,-0.3325,United Kingdom,573300
1238,Al Mahallah al Kubra,30.9667,31.1667,Egypt,543271
1239,Luofeng,37.359,120.396,China,570898
1240,Lingyuan,41.2407,119.3957,China,570660
1241,Baton Rouge,30.4418,-91.131,United States,570308
1242,Pereira,4.8104,-75.68,Colombia,568750
1243,Ciudad Bolivar,8.1167,-63.55,Venezuela,567953
1244,Durgapur,23.55,87.32,India,566517
1245,Orenburg,51.7667,55.1,Russia,564443
1246,Shenzhou,38.0005,115.5541,China,566087
1247,Asansol,23.6833,86.9667,India,563917
1248,Bacolod,10.6765,122.9509,Philippines,561875
1249,Akron,41.0798,-81.5219,United States,565208
1250,New Haven,41.3112,-72.9246,United States,564830
1251,Zhenzhou,32.2739,119.1619,China,564021
1252,Surakarta,-7.5667,110.8167,Indonesia,552118
1253,Tlajomulco de Zuniga,20.4736,-103.4431,Mexico,549442
1254,Jieshou,33.2605,115.3618,China,561956
1255,Lanxi,29.2167,119.4722,China,560514
1256,Zahedan,29.4833,60.8667,Iran,560725
1257,Dangyang,30.8258,111.791,China,560000
1258,Columbia,34.0376,-80.9037,United States,560041
1259,Kemerovo,55.3333,86.0667,Russia,556920
1260,Dresden,51.0493,13.7384,Germany,555805
1261,Uyo,5.008,7.85,Nigeria,554906
1262,Bhavnagar,21.765,72.1369,India,554978
1263,Luanzhou,39.7396,118.6978,China,554315
1264,Veracruz,19.1903,-96.1533,Mexico,552156
1265,Novokuznetsk,53.75,87.1167,Russia,552105
1266,Nellore,14.4333,79.9667,India,547621
1267,Chiclayo,-6.763,-79.8366,Peru,552508
1268,Al Hudaydah,14.8022,42.9511,Yemen,548433
1269,Eslamshahr,35.5333,51.2,Iran,548620
1270,Cabinda,-5.55,12.2,Angola,550000
1271,Amravati,20.9333,77.75,India,549370
1272,Korla,41.7646,86.1527,China,549324
1273,Huanghua,38.371,117.3329,China,548507
1274,Xingcheng,40.6189,120.7205,China,546176
1275,Wancheng,18.8,110.4,China,545597
1276,Kaiyuan,42.538,124.0371,China,545624
1277,Leipzig,51.35,12.3833,Germany,542529
1278,Fengcheng,40.4543,124.0646,China,543933
1279,Ajmer,26.468,74.639,India,542321
1280,Sihui,23.3448,112.6956,China,542873
1281,Tinnevelly,8.7289,77.7081,India,542200
1282,Fuding,27.2,120.2,China,542000
1283,Maturin,9.7457,-63.1832,Venezuela,542259
1284,An Nasiriyah,31.0539,46.2503,Iraq,541600
1285,Al Hillah,32.4833,44.4333,Iraq,541034
1286,Ibague,4.4378,-75.2006,Colombia,541101
1287,Hannover,52.3744,9.7386,Germany,538068
1288,Poznan,52.4,16.9167,Poland,538633
1289,Ryazan',54.6167,39.7167,Russia,537622
1290,Panshi,42.9392,126.0561,China,539804
1291,Kassala,15.45,36.4,Sudan,536009
1292,Chang'an,29.4761,113.448,China,537500
1293,Wencheng,19.6167,110.75,China,537426
1294,Shashi,30.32,112.23,China,520000
1295,Aksu,41.1664,80.25,China,535657
1296,Salta,-24.7883,-65.4106,Argentina,535303
1297,Kimhae,35.2342,128.8811,"Korea, South",534124
1298,Astrakhan',46.3333,48.0167,Russia,532504
1299,Mingguang,32.7816,117.9899,China,532732
1300,Naberezhnyye Chelny,55.7,52.3333,Russia,529797
1301,Antwerp,51.2211,4.3997,Belgium,529247
1302,Bikaner,28.0181,73.3169,India,529007
1303,Agartala,23.8333,91.2667,India,522613
1304,Xalapa,19.54,-96.9275,Mexico,525147
1305,Ndola,-12.9683,28.6337,Zambia,528330
1306,Hamadan,34.8065,48.5162,Iran,528256
1307,Villavicencio,4.1425,-73.6294,Colombia,527668
1308,Ailan Mubage,43.9167,81.3167,China,526745
1309,Ensenada,31.8578,-116.6058,Mexico,522768
1310,Lyon,45.76,4.84,France,516092
1311,Bac Ninh,21.1861,106.0763,Vietnam,520000
1312,Ciudad Apodaca,25.7833,-100.1833,Mexico,523370
1313,Santa Teresa del Tuy,10.2333,-66.65,Venezuela,525321
1314,Londrina,-23.3,-51.18,Brazil,520238
1315,Penza,53.2,45,Russia,523726
1316,Heroica Matamoros,25.8797,-97.5042,Mexico,520367
1317,Port Said,31.25,32.2833,Egypt,524433
1318,New Mirpur,33.1333,73.75,Pakistan,523500
1319,Yucheng,36.9329,116.6403,China,522878
1320,Bello,6.33,-75.57,Colombia,519670
1321,Meknes,33.8833,-5.55,Morocco,520428
1322,Nuremberg,49.4528,11.0778,Germany,518365
1323,Pohang,36.0322,129.365,"Korea, South",520305
1324,Utsunomiya,36.55,139.8833,Japan,519255
1325,Anda,46.4078,125.3252,China,520000
1326,Jinghong,22.0057,100.7948,China,519935
1327,Liaoyuan,42.8976,125.1381,China,506548
1328,Mesa,33.4017,-111.718,United States,518012
1329,Surrey,49.19,-122.8489,Canada,517887
1330,Cuautitlan Izcalli,19.65,-99.25,Mexico,511675
1331,Ujjain,23.1828,75.7772,India,515215
1332,Santa Marta,11.2361,-74.2017,Colombia,515556
1333,Beining,41.5933,121.7932,China,514898
1334,Hai Duong,20.9411,106.3331,Vietnam,507469
1335,Carrefour,18.5333,-72.4,Haiti,511345
1336,Homyel',52.4417,30.9833,Belarus,510300
1337,Leicester,52.6333,-1.1333,United Kingdom,508916
1338,Yanji,42.9044,129.5067,China,513072
1339,Benguela,-12.55,13.4167,Angola,513000
1340,Yicheng,31.7117,112.2551,China,512530
1341,Tabuk,28.3972,36.5789,Saudi Arabia,512629
1342,Lipetsk,52.6167,39.6,Russia,510439
1343,Ulhasnagar,19.2167,73.15,India,506098
1344,Matsuyama,33.8333,132.7667,Japan,509139
1345,Muntinlupa City,14.3833,121.05,Philippines,504509
1346,Kashgar,39.45,75.9833,China,506640
1347,Linghai,41.1676,121.3558,China,508079
1348,Aden,12.8,45.0333,Yemen,507355
1349,Jhansi,25.4486,78.5696,India,507000
1350,Kitwe,-12.8208,28.2119,Zambia,504194
1351,Aba,5.1167,7.3667,Nigeria,500183
1352,Palm Bay,27.955,-80.6627,United States,507002
1353,Pingtung,22.6761,120.4942,Taiwan,503530
1354,Samarkand,39.6542,66.9597,Uzbekistan,504423
1355,Davangere,14.4667,75.9167,India,503564
1356,Ichikawa,35.7219,139.9311,Japan,495592
1357,Jammu,32.7333,74.85,India,502197
1358,Mazatlan,23.22,-106.42,Mexico,502547
1359,Higashi-osaka,34.6794,135.6008,Japan,494640
1360,Ile-Ife,7.4667,4.5667,Nigeria,501952
1361,Kirov,58.6,49.65,Russia,501468
1362,Madinat as Sadis min Uktubar,29.9361,30.9269,Egypt,500000
1363,Qaraghandy,49.8,73.1167,Kazakhstan,501129
1364,Mazatan,29.0167,-110.1333,Mexico,500000
1365,Duisburg,51.4322,6.7611,Germany,498590
1366,Mykolaiv,46.9667,32,Ukraine,498748
1367,Matsudo,35.7878,139.9031,Japan,492671
1368,Provo,40.2457,-111.6457,United States,500617
1369,Meicheng,30.6412,116.5689,China,500292
1370,Niteroi,-22.8833,-43.1036,Brazil,496696
1371,Rouen,49.4428,1.0886,France,494382
1372,Oujda-Angad,34.6867,-1.9114,Morocco,494252
1373,Johor Bahru,1.4556,103.7611,Malaysia,497097
1374,Worcester,42.2705,-71.8079,United States,498328
1375,Hongjiang,27.1167,109.95,China,498100
1376,Chimbote,-9.0745,-78.5936,Peru,497875
1377,Dengtacun,41.4237,123.3203,China,496122
1378,Ixtapaluca,19.3186,-98.8822,Mexico,495563
1379,Zhijiang,30.4271,111.7506,China,495995
1380,Chengjiao,35.4043,114.0593,China,495744
1381,Beipiao,41.802,120.7621,China,496164
1382,Murrieta,33.572,-117.1909,United States,496046
1383,Kota Bharu,6.1333,102.25,Malaysia,491237
1384,Heshan,22.7697,112.9578,China,494938
1385,Ciudad Lopez Mateos,19.55,-99.2833,Mexico,489937
1386,Vinh,18.6733,105.6922,Vietnam,490000
1387,Tultitlan de Mariano Escobedo,19.645,-99.1694,Mexico,486998
1388,Duyun,26.2672,107.5143,China,493574
1389,Encheng,22.1879,112.3131,China,492814
1390,Nishinomiya-hama,34.7333,135.3333,Japan,487413
1391,Kandahar,31.6078,65.7053,Afghanistan,491500
1392,Cheboksary,56.1333,47.25,Russia,489498
1393,Yuanping,38.7299,112.7134,China,491213
1394,Port Sudan,19.6158,37.2164,Sudan,489275
1395,Valledupar,10.4603,-73.2597,Colombia,490075
1396,Edinburgh,55.953,-3.189,United Kingdom,488050
1397,Belgaum,15.8667,74.5,India,488157
1398,Tula,54.2,37.6167,Russia,485221
1399,Taozhou,30.8956,119.411,China,487243
1400,Suez,29.9667,32.5333,Egypt,485342
1401,Shahe,36.8622,114.502,China,486329
1402,Yazd,31.8972,54.3678,Iran,486152
1403,Nazret,8.55,39.27,Ethiopia,476892
1404,Gaoping,35.7911,112.9259,China,484862
1405,Brookhaven,40.8321,-72.9518,United States,484671
1406,Greenville,34.8353,-82.3647,United States,484465
1407,Arak,34.08,49.7,Iran,484212
1408,San Nicolas de los Garza,25.75,-100.2833,Mexico,476761
1409,Gulbarga,17.3333,76.8333,India,483615
1410,Juiz de Fora,-21.7642,-43.3503,Brazil,470193
1411,Dunhua,43.3667,128.2333,China,483811
1412,Feira de Santana,-12.25,-38.97,Brazil,481911
1413,Jiaji,19.2431,110.4642,China,483217
1414,Az Zarqa',32.0833,36.1,Jordan,481300
1415,Americana,-22.7392,-47.3314,Brazil,479472
1416,Ardabil,38.25,48.3,Iran,482632
1417,Sylhet,24.9,91.8667,Bangladesh,479837
1418,Wichita,37.6896,-97.3442,United States,482249
1419,Toledo,41.6639,-83.5822,United States,482111
1420,Kaihua,23.3715,104.2437,China,481505
1421,Caerdydd,51.4833,-3.1833,United Kingdom,479000
1422,Jamnagar,22.47,70.07,India,479920
1423,Fuyuan,48.3614,134.2875,China,480000
1424,Dhulia,20.9,74.7833,India,479073
1425,Nampula,-15.1167,39.2667,Mozambique,477900
1426,Gaya,24.75,85.0167,India,474093
1427,Piraeus,37.95,23.7,Greece,466065
1428,Oita,33.2333,131.6067,Japan,477701
1429,Florianopolis,-27.5933,-48.553,Brazil,477798
1430,Chiniot,31.7167,72.9833,Pakistan,477781
1431,Jiannan,31.3446,104.1994,China,477868
1432,Wuhai,39.6708,106.8114,China,477000
1433,Kaliningrad,54.7167,20.5,Russia,475056
1434,Sukkur,27.6995,68.8673,Pakistan,476776
1435,Nangong,37.3606,115.3803,China,476096
1436,Staten Island,40.5834,-74.1496,United States,476143
1437,San Juan,-31.5375,-68.5364,Argentina,471389
1438,Vila Velha,-20.3364,-40.2936,Brazil,472762
1439,Macapa,0.033,-51.0653,Brazil,474706
1440,Des Moines,41.5725,-93.6105,United States,473957
1441,Piura,-5.2008,-80.6253,Peru,473025
1442,Jiaojiangcun,28.6804,121.45,China,471500
1443,Laohekou,32.3849,111.6695,China,471482
1444,Fujin,47.2489,132.0341,China,470000
1445,Beian,48.2395,126.5037,China,470000
1446,Celaya,20.5222,-100.8122,Mexico,468469
1447,Xiaoyi,37.1449,111.7718,China,468770
1448,Strasbourg,48.5833,7.7458,France,465069
1449,Lanus,-34.7,-58.4,Argentina,459263
1450,Qingzhen,26.5555,106.4646,China,467992
1451,Jiangshan,28.7412,118.6225,China,467862
1452,Ba`qubah,33.7447,44.6436,Iraq,467900
1453,Tamale,9.4075,-0.8533,Ghana,466723
1454,Gdansk,54.3667,18.6333,Poland,464254
1455,Kanazawa,36.5667,136.65,Japan,463873
1456,Manado,1.4931,124.8413,Indonesia,461636
1457,Jinchang,38.5168,102.1866,China,464200
1458,Calabar,4.95,8.325,Nigeria,461796
1459,Fukuyama,34.4858,133.3625,Japan,462203
1460,Long Beach,33.7981,-118.1675,United States,462628
1461,Malatya,38.3554,38.3337,Turkey,461574
1462,Hue,16.4667,107.5833,Vietnam,455230
1463,Jalgaon,21.0167,75.5667,India,460468
1464,Port St. Lucie,27.2796,-80.3883,United States,461152
1465,Maua,-23.6678,-46.4608,Brazil,453286
1466,Monteria,8.76,-75.8856,Colombia,460223
1467,Tel Aviv-Yafo,32.0833,34.8,Israel,451523
1468,Xicheng,23.3629,103.1545,China,459781
1469,Marikina City,14.65,121.1,Philippines,450741
1470,Pyeongtaek,36.9947,127.0889,"Korea, South",457873
1471,Kurnool,15.8222,78.035,India,457633
1472,Sfax,34.75,10.72,Tunisia,453050
1473,City of Calamba,14.2167,121.1667,Philippines,454486
1474,Denton,33.2176,-97.1419,United States,457177
1475,Ar Ramadi,33.4167,43.3,Iraq,456853
1476,Melaka,2.1889,102.2511,Malaysia,455300
1477,Volta Redonda,-22.5196,-44.095,Brazil,456362
1478,Jian'ou,27.0387,118.3215,China,456000
1479,Shenmu,38.8389,110.4896,China,455493
1480,Huadian,42.9688,126.7388,China,455339
1481,Taoyuan District,24.9889,121.3111,Taiwan,443273
1482,Iloilo,10.7167,122.5667,Philippines,447992
1483,Kota Kinabalu,5.975,116.0725,Malaysia,452058
1484,Minzhu,43.7192,127.337,China,453265
1485,Rajshahi,24.3667,88.6,Bangladesh,448087
1486,Tanta,30.7833,31,Egypt,429503
1487,Balashikha,55.8,37.95,Russia,450771
1488,Udaipur,24.5833,73.6833,India,451100
1489,Kursk,51.7372,36.1872,Russia,449063
1490,Mariupol,47.1306,37.5639,Ukraine,449498
1491,Bukavu,-2.5,28.8667,Congo (Kinshasa),436779
1492,Hsinchu,24.8047,120.9714,Taiwan,445635
1493,Barcelona,10.1333,-64.6833,Venezuela,448016
1494,Constantine,36.365,6.6147,Algeria,448374
1495,Tanbei,35.0907,112.9317,China,447701
1496,Ado-Ekiti,7.6167,5.2167,Nigeria,446749
1497,Batman,37.8833,41.1333,Turkey,447106
1498,Pasay City,14.55,121,Philippines,416522
1499,Madison,43.0826,-89.3931,United States,447245
1500,Pingquan,41.0042,118.6848,China,446939
1501,Baisha,29.4774,119.2853,China,446000
1502,Bellary,15.15,76.915,India,445388
1503,Santiago de Cuba,20.0283,-75.8206,Cuba,444851
1504,Yongji,34.867,110.4417,China,444724
1505,Reno,39.5497,-119.8483,United States,445020
1506,Danjiangkou,32.5408,111.5098,China,443755
1507,Kahramanmaras,37.5875,36.9453,Turkey,443575
1508,Sao Jose do Rio Preto,-20.82,-49.3789,Brazil,442548
1509,Andijon,40.7,72.35,Uzbekistan,441700
1510,Harrisburg,40.2752,-76.8843,United States,442289
1511,Nancy,48.6936,6.1846,France,434565
1512,Al Mansurah,31.05,31.3833,Egypt,439348
1513,Machida,35.5486,139.4467,Japan,434407
1514,Ning'an,44.3429,129.4621,China,440000
1515,Beira,-19.8333,34.85,Mozambique,439264
1516,Little Rock,34.7256,-92.3576,United States,439815
1517,Zurich,47.3786,8.54,Switzerland,434008
1518,Zhangjiakou Shi Xuanhua Qu,40.5944,115.0243,China,409745
1519,Sunch'on,39.4167,125.9333,"Korea, North",437000
1520,Diadema,-23.6858,-46.6228,Brazil,412428
1521,Guangming,45.3357,122.7765,China,437559
1522,Sangli,16.8667,74.5667,India,436639
1523,Tuticorin,8.7833,78.1333,India,436094
1524,Herat,34.3738,62.1792,Afghanistan,436300
1525,Kupang,-10.1633,123.5778,Indonesia,433970
1526,Larkana,27.56,68.2264,Pakistan,435817
1527,Jeju,33.5097,126.5219,"Korea, South",435413
1528,Bandar `Abbas,27.2,56.25,Iran,435751
1529,Santos,-23.9608,-46.3339,Brazil,433966
1530,Stavropol',45.05,41.9833,Russia,433577
1531,Katsina,12.9908,7.6017,Nigeria,432149
1532,Yogyakarta,-7.8014,110.3644,Indonesia,422732
1533,Calicut,11.25,75.7667,India,431560
1534,Zanjan,36.6667,48.4833,Iran,433475
1535,Welkom,-27.9831,26.7208,South Africa,431944
1536,Ulan-Ude,51.8272,107.6064,Russia,431922
1537,Oakland,37.7903,-122.2165,United States,433031
1538,Kashiwa,35.8544,139.9689,Japan,429070
1539,Mazar-e Sharif,36.7,67.1167,Afghanistan,427600
1540,Kashan,33.9833,51.4333,Iran,432557
1541,Kenitra,34.25,-6.5833,Morocco,431282
1542,Khamis Mushayt,18.3,42.7333,Saudi Arabia,430828
1543,Masan,35.1833,128.55,"Korea, South",429612
1544,Cusco,-13.5183,-71.9781,Peru,428450
1545,Sevastopol,44.6,33.5333,Ukraine,428753
1546,Mandaluyong City,14.5833,121.0333,Philippines,386276
1547,Kihung,37.4167,127.1167,"Korea, South",425184
1548,Toyota,35.0833,137.1567,Japan,426477
1549,Akola,20.7333,77,India,425817
1550,Yan'an Beilu,44.0222,87.2961,China,426253
1551,Agadir,30.4167,-9.5833,Morocco,421844
1552,Mogi das Cruzes,-23.5228,-46.1931,Brazil,424633
1553,Durham,35.9794,-78.9031,United States,424700
1554,Likasi,-10.9833,26.7333,Congo (Kinshasa),422535
1555,Laval,45.5833,-73.75,Canada,422993
1556,Winston-Salem,36.1029,-80.2611,United States,422269
1557,Uijeongbu,37.7486,127.0389,"Korea, South",421579
1558,Tver',56.8578,35.9219,Russia,419363
1559,Elazig,38.6667,39.2167,Turkey,421726
1560,Akure,7.25,5.195,Nigeria,420594
1561,Kumi,36.21,128.3544,"Korea, South",421075
1562,Hpa-An,16.8906,97.6333,Burma,421525
1563,Bonita Springs,26.3559,-81.7861,United States,421291
1564,Hailin,44.5735,129.3825,China,420000
1565,Seremban,2.7297,101.9381,Malaysia,419536
1566,Takamatsu,34.35,134.05,Japan,418772
1567,Lecheng,25.1307,113.3472,China,419500
1568,Zhengjiatun,43.513,123.5003,China,419529
1569,Luhansk,48.5833,39.3333,Ukraine,417990
1570,Pencheng,29.6792,115.6611,China,419047
1571,Magnitogorsk,53.3833,59.0333,Russia,418241
1572,Angeles City,15.1472,120.5847,Philippines,411634
1573,El Obeid,13.1833,30.2167,Sudan,418280
1574,Dalai,45.505,124.2863,China,418232
1575,Xingren,25.4352,105.1907,China,417919
1576,Palma,39.5667,2.6497,Spain,416065
1577,Kolwezi,-10.7167,25.4667,Congo (Kinshasa),418000
1578,Wenlan,23.3689,103.3881,China,417156
1579,Indio,33.7346,-116.2346,United States,417059
1580,Palm Coast,29.5392,-81.246,United States,417007
1581,Arusha,-3.3667,36.6833,Tanzania,416442
1582,Fenyang,37.2652,111.7793,China,416212
1583,Toyama,36.7,137.22,Japan,415816
1584,Paju,37.8328,126.8169,"Korea, South",415345
1585,Mataram,-8.5833,116.1167,Indonesia,408900
1586,Chattanooga,35.0657,-85.2488,United States,415501
1587,Lapu-Lapu City,10.315,123.9761,Philippines,408112
1588,Nagqu,31.4766,92.0569,China,414554
1589,Kisumu,-0.1,34.75,Kenya,409928
1590,Jayapura,-2.5333,140.7167,Indonesia,413283
1591,Fangting,31.1282,104.1695,China,412758
1592,Nagasaki,32.7833,129.8667,Japan,411421
1593,Spokane,47.6671,-117.433,United States,412275
1594,Shekhupura,31.7083,74,Pakistan,411834
1595,Sochi,43.5853,39.7203,Russia,411524
1596,Bhagalpur,25.25,87.0167,India,410210
1597,Ipatinga,-19.4796,-42.52,Brazil,407894
1598,Ivanovo,57,41,Russia,406933
1599,Osogbo,7.7667,4.5667,Nigeria,408245
1600,Imus,14.4297,120.9367,Philippines,403785
1601,Ciudad Obregon,27.4939,-109.9389,Mexico,405000
1602,Turkmenabat,39.1,63.5667,Turkmenistan,408906
1603,Namangan,40.9953,71.6725,Uzbekistan,408500
1604,Bryansk,53.25,34.3667,Russia,406553
1605,Basuo,19.1,108.65,China,408309
1606,Taiping,32.0691,108.0351,China,407594
1607,Maracay,10.2469,-67.5958,Venezuela,407109
1608,Murcia,37.9866,-1.1415,Spain,406807
1609,Jiexiu,37.0282,111.9103,China,406517
1610,Mbale,1.0806,34.175,Uganda,402368
1611,Taraz,42.8833,71.3667,Kazakhstan,406262
1612,Asyut,27.1869,31.1714,Egypt,389307
1613,Santa Fe,-31.6333,-60.7,Argentina,405683
1614,Campina Grande,-7.2306,-35.8811,Brazil,405072
1615,Szczecin,53.4247,14.5553,Poland,403833
1616,Ghulja,43.9,81.35,China,403489
1617,Syracuse,43.0409,-76.1438,United States,404223
1618,Carapicuiba,-23.5228,-46.8358,Brazil,392294
1619,Gifu,35.4167,136.7667,Japan,401534
1620,Quilon,8.8853,76.5864,India,397419
1621,Jundiai,-23.1864,-46.8842,Brazil,401896
1622,Lancaster,40.0421,-76.3012,United States,401524
1623,Eindhoven,51.43,5.5,Netherlands,398053
1624,Sikar,27.6119,75.1397,India,400000
1625,Tumkur,13.33,77.1,India,399606
1626,Jiangjiafan,31.0304,112.1,China,400000
1627,Miyazaki,31.9167,131.4167,Japan,398307
1628,Arlington,32.6998,-97.125,United States,398854
1629,Stockton,37.9765,-121.3109,United States,397264
1630,Bhatpara,22.8667,88.4167,India,386019
1631,Sandakan,5.8388,118.1173,Malaysia,396290
1632,Hejin,35.5914,110.706,China,395527
1633,Thanh Hoa,19.8075,105.7764,Vietnam,393294
1634,Muzaffarnagar,29.4708,77.7033,India,392451
1635,Poughkeepsie,41.6949,-73.921,United States,394760
1636,Comilla,23.4704,91.17,Bangladesh,389411
1637,Metz,49.1203,6.1778,France,391187
1638,Campos,-21.7523,-41.3304,Brazil,387417
1639,Nha Trang,12.25,109.1833,Vietnam,392279
1640,Belgorod,50.6,36.6,Russia,391135
1641,Yola,9.2,12.4833,Nigeria,392854
1642,Minamisuita,34.7667,135.5167,Japan,381829
1643,San Lorenzo,-25.3431,-57.5094,Paraguay,387977
1644,Ad Diwaniyah,31.9892,44.9247,Iraq,391600
1645,Hancheng,35.4603,110.4292,China,391164
1646,Fuyu,45.1804,124.82,China,356905
1647,Bologna,44.4939,11.3428,Italy,388367
1648,Karamay,45.5928,84.8711,China,391008
1649,Kakinada,16.9333,82.2167,India,384182
1650,Augusta,33.3645,-82.0708,United States,390809
1651,Bhilwara,25.35,74.6333,India,389911
1652,Caxias do Sul,-29.18,-51.17,Brazil,381270
1653,Tieli,46.9804,128.045,China,390000
1654,Cilegon,-6.0027,106.0112,Indonesia,387543
1655,Baicheng,45.6148,122.832,China,386861
1656,Nizamabad,18.6704,78.1,India,388505
1657,Boise,43.6007,-116.2312,United States,389280
1658,Tonala,20.6167,-103.2333,Mexico,374258
1659,Okazaki,34.95,137.1667,Japan,387294
1660,Mwanza,-2.5167,32.9,Tanzania,385810
1661,Aqtobe,50.3,57.1667,Kazakhstan,387807
1662,Plovdiv,42.1433,24.7489,Bulgaria,384088
1663,Oxnard,34.1963,-119.1815,United States,387647
1664,Tetouan,35.5667,-5.3667,Morocco,380787
1665,Florence,43.7714,11.2542,Italy,382258
1666,Ha'il,27.5236,41.7001,Saudi Arabia,385257
1667,Yidu,30.388,111.4505,China,384598
1668,Lianzhou,24.7868,112.3735,China,384700
1669,Scranton,41.4044,-75.6649,United States,384250
1670,London,42.9836,-81.2497,Canada,383822
1671,Las Palmas,28.1272,-15.4314,Spain,379925
1672,Rio Branco,-9.9781,-67.8117,Brazil,383443
1673,Modesto,37.6374,-121.0028,United States,383134
1674,Ichinomiya,35.3039,136.8031,Japan,379689
1675,Brno,49.1953,16.6083,Czechia,381346
1676,Kissimmee,28.3042,-81.4164,United States,382720
1677,Pasto,1.2136,-77.2811,Colombia,382236
1678,Qazvin,36.2688,50.0041,Iran,381598
1679,Irapuato,20.6667,-101.35,Mexico,380941
1680,Novi Sad,45.2644,19.8317,Serbia,380000
1681,Antofagasta,-23.6464,-70.398,Chile,380695
1682,Shihezi,44.3,86.0333,China,380130
1683,Shache,38.4261,77.25,China,373492
1684,Panihati,22.69,88.37,India,377347
1685,Huancayo,-12.0667,-75.2167,Peru,378203
1686,Aurora,39.7087,-104.7273,United States,379289
1687,Malabon,14.6625,120.9567,Philippines,365525
1688,Parbhani,19.2704,76.76,India,378326
1689,Usulutan,13.35,-88.45,El Salvador,378606
1690,Youngstown,41.0993,-80.6463,United States,378732
1691,Christchurch,-43.5309,172.6365,New Zealand,377200
1692,Hatay,36.2,36.15,Turkey,377793
1693,Iquitos,-3.7333,-73.25,Peru,377609
1694,Sivas,39.75,37.0167,Turkey,377561
1695,Helixi,30.6267,118.9861,China,376857
1696,A Coruna,43.3713,-8.4188,Spain,370610
1697,Manizales,5.06,-75.52,Colombia,375848
1698,Manukau City,-36.9833,174.8833,New Zealand,375600
1699,Stoke-on-Trent,53,-2.1833,United Kingdom,372775
1700,Cumana,10.45,-64.1667,Venezuela,374706
1701,Vinnytsia,49.2372,28.4672,Ukraine,371855
1702,Rohtak,28.9,76.5667,India,374292
1703,Latur,18.4004,76.57,India,374394
1704,Toyohashi,34.7667,137.3833,Japan,373234
1705,Sanandaj,35.3097,46.9989,Iran,373987
1706,Nuevo Laredo,27.4861,-99.5069,Mexico,373725
1707,Anguo,38.4177,115.3204,China,370317
1708,Ambon,-3.705,128.17,Indonesia,372249
1709,Mandaue City,10.3333,123.9333,Philippines,362654
1710,Keelung,25.1283,121.7419,Taiwan,370155
1711,Varna,43.2078,27.9169,Bulgaria,369162
1712,Lengshuijiang,27.6858,111.4279,China,370300
1713,Rajapalaiyam,9.4204,77.58,India,369991
1714,Nagano,36.6486,138.1928,Japan,370057
1715,Az Zubayr,30.3892,47.7081,Iraq,370000
1716,Al Qatif,26.5196,50.0115,Saudi Arabia,368892
1717,Cuernavaca,18.9186,-99.2342,Mexico,366321
1718,Sanya,18.2536,109.5019,China,362689
1719,Nicolas Romero,19.5833,-99.3667,Mexico,366602
1720,Huichang,34.9136,112.7852,China,367113
1721,Vitsyebsk,55.1833,30.1667,Belarus,364800
1722,Bauru,-22.3147,-49.0606,Brazil,366992
1723,Bochum,51.4833,7.2167,Germany,364628
1724,Anapolis,-16.3269,-48.9528,Brazil,366491
1725,Coventry,52.4081,-1.5106,United Kingdom,362690
1726,Zalantun,48.0033,122.7365,China,366323
1727,Tecamac,19.7131,-98.9683,Mexico,364579
1728,Jhang City,31.2681,72.3181,Pakistan,365198
1729,Ciudad General Escobedo,25.7933,-100.1583,Mexico,363436
1730,Wonsan,39.1475,127.4461,"Korea, North",363127
1731,Kocaeli,40.7656,29.9406,Turkey,363416
1732,Bengkulu,-3.7956,102.2592,Indonesia,360495
1733,Montes Claros,-16.7322,-43.8636,Brazil,361915
1734,Petion-Ville,18.5098,-72.2856,Haiti,359615
1735,Shuanghejiedao,30.3866,106.7756,China,360000
1736,Bydgoszcz,53.1167,18,Poland,358614
1737,Surgut,61.25,73.4333,Russia,360590
1738,Donostia,43.3204,-1.98,Spain,357468
1739,Bobo-Dioulasso,11.1833,-4.2833,Burkina Faso,360106
1740,Umuahia,5.5333,7.4833,Nigeria,359230
1741,Gedaref,14.0333,35.3833,Sudan,354927
1742,Palu,-0.895,119.8594,Indonesia,359350
1743,Santa Rosa,14.3167,121.1167,Philippines,353767
1744,Pokhara,28.2097,83.9853,Nepal,353841
1745,Mahilyow,53.9089,30.343,Belarus,357100
1746,Wudalianchi,48.6433,126.1408,China,360000
1747,Sungai Petani,5.65,100.48,Malaysia,358499
1748,Nam Dinh,20.42,106.1683,Vietnam,352108
1749,Sinuiju,40.1,124.4,"Korea, North",359341
1750,Hrodna,53.6667,23.8167,Belarus,356900
1751,Vladimir,56.1333,40.4167,Russia,356168
1752,Sao Vicente,-23.9633,-46.3922,Brazil,355542
1753,Wakayama,34.2333,135.1667,Japan,355825
1754,Yong'an,25.9733,117.3593,China,357000
1755,Itaquaquecetuba,-23.4864,-46.3486,Brazil,352801
1756,Wuppertal,51.2667,7.1833,Germany,354382
1757,Minatitlan,17.9833,-94.55,Mexico,356020
1758,Nizhniy Tagil,57.9167,59.9667,Russia,355693
1759,Nara,34.6833,135.7833,Japan,353989
1760,Hongzhai,35.0476,104.6394,China,355037
1761,Bilbao,43.2622,-2.9533,Spain,346843
1762,Haarlem,52.3804,4.63,Netherlands,349957
1763,Pavlodar,52.3156,76.9564,Kazakhstan,353930
1764,Gimpo,37.6236,126.7142,"Korea, South",352683
1765,Rahimyar Khan,28.4202,70.2952,Pakistan,353203
1766,Van,38.5019,43.4167,Turkey,353419
1767,Corrientes,-27.4833,-58.8167,Argentina,352646
1768,San Pedro,14.3583,121.0583,Philippines,325809
1769,Arkhangel'sk,64.55,40.5333,Russia,351488
1770,Licheng,24.4935,110.3902,China,352472
1771,Cabimas,10.4,-71.4333,Venezuela,351735
1772,Yakeshi,49.2842,120.7283,China,352173
1773,Baguio City,16.4152,120.5956,Philippines,345366
1774,Ahmadnagar,19.0833,74.7333,India,350859
1775,Fayetteville,36.0713,-94.166,United States,351246
1776,Koshigaya,35.8911,139.7908,Japan,345458
1777,Holguin,20.8883,-76.2558,Cuba,350191
1778,Qo`qon,40.5404,70.94,Uzbekistan,350000
1779,Anaheim,33.839,-117.8572,United States,350365
1780,Yingmen,39.83,97.73,China,350000
1781,Piracicaba,-22.725,-47.6489,Brazil,342209
1782,Khorramabad,33.4667,48.35,Iran,348216
1783,Rajahmundry,16.9833,81.7833,India,341831
1784,Chita,52.0333,113.5,Russia,347088
1785,Sari,36.5658,53.0597,Iran,347402
1786,Makiivka,48.0556,37.9611,Ukraine,347376
1787,Chitungwiza,-18,31.1,Zimbabwe,340360
1788,Pensacola,30.4427,-87.1886,United States,346921
1789,Victorville,34.5277,-117.3536,United States,346789
1790,Tokorozawa,35.7994,139.4689,Japan,341409
1791,Tanch'on,40.458,128.911,"Korea, North",345876
1792,Sumqayit,40.5917,49.6397,Azerbaijan,341200
1793,Kusti,13.17,32.66,Sudan,345068
1794,Al `Amarah,31.8416,47.1512,Iraq,345007
1795,Cuddapah,14.4667,78.8167,India,344893
1796,Simferopol,44.9484,34.1,Ukraine,341799
1797,Tarlac City,15.4802,120.5979,Philippines,342493
1798,Lancaster,34.6935,-118.1753,United States,343304
1799,Greensboro,36.0956,-79.8269,United States,343090
1800,Iligan,8.2333,124.25,Philippines,342618
1801,East London,-33.0153,27.9116,South Africa,338627
1802,Otsu,35.0167,135.85,Japan,342175
1803,Franca,-20.5389,-47.4008,Brazil,342112
1804,Kaluga,54.5333,36.2667,Russia,341892
1805,Yeosu,34.7368,127.7458,"Korea, South",341994
1806,Corpus Christi,27.726,-97.3755,United States,342464
1807,Muzaffarpur,26.12,85.3833,India,333200
1808,Lublin,51.2333,22.5667,Poland,339850
1809,Brest,52.0847,23.6569,Belarus,339700
1810,Lianran,24.9211,102.4778,China,341341
1811,Alwar,27.5667,76.6167,India,341422
1812,Baishan,41.9377,126.4179,China,330000
1813,Kawagoe,35.9177,139.4911,Japan,337931
1814,Farg`ona,40.3864,71.7864,Uzbekistan,340600
1815,Tamuramachi-moriyama,37.41,140.38,Japan,340560
1816,Brahmapur,19.32,84.8,India,324726
1817,Buon Ma Thuot,12.6667,108.05,Vietnam,340000
1818,Binan,14.3333,121.0833,Philippines,333028
1819,Iwaki,37.0333,140.8833,Japan,340231
1820,Semey,50.4111,80.2275,Kazakhstan,340000
1821,Tarsus,36.9167,34.9,Turkey,339676
1822,Randburg,-26.0936,28.0064,South Africa,337053
1823,Tepic,21.5083,-104.8931,Mexico,332863
1824,Jitpur,27.6666,85.3333,Nepal,337785
1825,Kaesong,37.964,126.5644,"Korea, North",338155
1826,Beni,0.5,29.4667,Congo (Kinshasa),332903
1827,Chinju,35.1928,128.0847,"Korea, South",337230
1828,Tangdong,25.9755,113.2302,China,337495
1829,Butuan,8.9534,125.5288,Philippines,337063
1830,Reading,51.4542,-0.9731,United Kingdom,337108
1831,Belfast,54.5964,-5.93,United Kingdom,333871
1832,Alicante,38.3453,-0.4831,Spain,334887
1833,Blida,36.4722,2.8333,Algeria,331779
1834,Hangu,39.232,117.777,China,332793
1835,Yingzhong,32.2381,119.8133,China,334977
1836,Vina del Mar,-33.0244,-71.5517,Chile,332875
1837,Asahikawa,43.7706,142.365,Japan,334692
1838,Bielefeld,52.0167,8.5333,Germany,333786
1839,Cuenca,-2.8974,-79.0045,Ecuador,329928
1840,Fort Wayne,41.0886,-85.1437,United States,334122
1841,Maebashi,36.3833,139.0667,Japan,332999
1842,Lipa City,13.9411,121.1622,Philippines,332386
1843,Wad Medani,14.4,33.51,Sudan,332714
1844,Islip,40.7384,-73.1887,United States,332862
1845,Sousse,35.83,10.625,Tunisia,327004
1846,Kamarhati,22.67,88.37,India,330211
1847,Thessaloniki,40.6333,22.95,Greece,315196
1848,Ganca,40.6828,46.3606,Azerbaijan,331400
1849,Bilaspur,22.15,82.0167,India,331030
1850,Santa Ana,33.7366,-117.8819,United States,332318
1851,Mymensingh,24.7504,90.38,Bangladesh,330126
1852,Al Fayyum,29.3,30.8333,Egypt,315940
1853,Flint,43.0235,-83.6922,United States,332190
1854,Kendari,-3.9675,122.5947,Indonesia,331013
1855,Balikesir,39.6511,27.8842,Turkey,331788
1856,Az Zaqaziq,30.5667,31.5,Egypt,302840
1857,Thai Nguyen,21.6,105.85,Vietnam,330000
1858,Smolensk,54.7828,32.0453,Russia,329853
1859,Wonju,37.3417,127.9208,"Korea, South",330854
1860,Maringa,-23.4095,-51.93,Brazil,328335
1861,San Juan,18.4037,-66.0636,Puerto Rico,331165
1862,Dahuk,36.85,42.9833,Iraq,330600
1863,Batangas,13.75,121.05,Philippines,329874
1864,Mathura,27.4833,77.6833,India,330511
1865,Pelotas,-31.75,-52.33,Brazil,320674
1866,Bamiantong,44.9164,130.5212,China,330000
1867,Kochi,33.5667,133.5333,Japan,328930
1868,Patiala,30.3204,76.385,India,329224
1869,Gujrat,32.5736,74.0789,Pakistan,328512
1870,Bonn,50.7339,7.0997,Germany,327258
1871,Vung Tau,10.4042,107.1417,Vietnam,327000
1872,Markham,43.8767,-79.2633,Canada,328966
1873,Saugor,23.8504,78.75,India,328240
1874,Roodepoort,-26.1625,27.8725,South Africa,326416
1875,Gomez Palacio,25.5611,-103.4983,Mexico,327985
1876,Volzhskiy,48.7833,44.7667,Russia,326055
1877,Bari,41.1253,16.8667,Italy,325183
1878,Bijapur,16.8244,75.7154,India,327427
1879,Sukabumi,-6.9197,106.9272,Indonesia,320970
1880,Ulanhot,46.0726,122.0719,China,327081
1881,Fayetteville,35.0846,-78.9776,United States,327435
1882,Itajai,-26.8996,-48.68,Brazil,327126
1883,Nakuru,-0.2833,36.0667,Kenya,307990
1884,Yunzhong,39.8143,113.0946,China,326849
1885,Al Fallujah,33.35,43.7833,Iraq,326471
1886,Boa Vista,2.82,-60.6719,Brazil,326419
1887,Cluj-Napoca,46.78,23.5594,Romania,324576
1888,Malmo,55.5932,13.0214,Sweden,321845
1889,Gwangmyeongni,37.4772,126.8664,"Korea, South",318021
1890,Pucallpa,-8.3833,-74.55,Peru,326040
1891,Cordoba,37.8833,-4.7667,Spain,325701
1892,Kuching,1.5397,110.3542,Malaysia,325132
1893,Zinder,13.8,8.9833,Niger,322935
1894,Naha,26.2122,127.6789,Japan,317606
1895,Gonder,12.6,37.4667,Ethiopia,323900
1896,Uberaba,-19.7478,-47.9319,Brazil,325279
1897,Jackson,32.3163,-90.2124,United States,325350
1898,Mekele,13.4833,39.4667,Ethiopia,323700
1899,Kulti,23.73,86.85,India,313809
1900,Santa Rosa,38.4458,-122.7067,United States,324634
1901,Gonaives,19.45,-72.6833,Haiti,324043
1902,Lansing,42.7142,-84.5601,United States,324286
1903,Binxian,35.0364,108.0764,China,323256
1904,Newcastle,-32.9167,151.75,Australia,322278
1905,Kurgan,55.4408,65.3411,Russia,322042
1906,Kaiyuan,23.7147,103.2585,China,322693
1907,Temara,33.9234,-6.9076,Morocco,313510
1908,Uruapan,19.4208,-102.0628,Mexico,315350
1909,Hotan,37.1012,79.9327,China,322300
1910,Camaguey,21.3786,-77.9186,Cuba,321992
1911,Ann Arbor,42.2755,-83.7312,United States,322267
1912,San Salvador de Jujuy,-24.1856,-65.2994,Argentina,321789
1913,Timisoara,45.7597,21.23,Romania,319279
1914,Al Kut,32.4907,45.8304,Iraq,321521
1915,Tapachula,14.9,-92.2667,Mexico,320451
1916,Shahjanpur,27.8804,79.905,India,320434
1917,Cherepovets,59.1333,37.9167,Russia,318856
1918,Poltava,49.5744,34.5686,Ukraine,317847
1919,Henderson,36.0133,-115.038,United States,320189
1920,Maroua,10.5823,14.3275,Cameroon,319941
1921,Kaech'on,39.6986,125.9061,"Korea, North",319554
1922,Asan,36.35,126.9167,"Korea, South",319929
1923,Coatzacoalcos,18.15,-94.4333,Mexico,319187
1924,Huntsville,34.6988,-86.6412,United States,319249
1925,Trichur,10.52,76.21,India,315596
1926,General Trias,14.3833,120.8833,Philippines,314303
1927,Cirebon,-6.7167,108.5667,Indonesia,316126
1928,Tampico,22.2553,-97.8686,Mexico,314418
1929,Lexington,38.0423,-84.4587,United States,317110
1930,Boaco,12.4722,-85.6586,Nicaragua,317000
1931,Oskemen,49.95,82.6167,Kazakhstan,316699
1932,Ca Mau,9.1833,105.15,Vietnam,315270
1933,Neiva,2.9275,-75.2875,Colombia,316033
1934,Cabuyao,14.275,121.125,Philippines,308745
1935,Vologda,59.2167,39.9,Russia,313012
1936,Saransk,54.1833,45.1833,Russia,314789
1937,Mobile,30.6783,-88.1162,United States,315502
1938,Bor,6.2167,31.55,South Sudan,315351
1939,Munster,51.9625,7.6256,Germany,314319
1940,Barddhaman,23.25,87.85,India,314265
1941,Ksar El Kebir,35.0204,-5.91,Morocco,306600
1942,Karlsruhe,49.0167,8.4,Germany,313092
1943,Kasur,31.1167,74.45,Pakistan,314617
1944,Yakou,33.2937,113.5203,China,313828
1945,Orel,52.9667,36.0833,Russia,311625
1946,Safi,32.2833,-9.2333,Morocco,308508
1947,Shahr-e Qods,35.7214,51.1089,Iran,309605
1948,Vitoria da Conquista,-14.8661,-40.8394,Brazil,308204
1949,Hamah,35.1333,36.75,Syria,312994
1950,Guaruja,-23.9936,-46.2564,Brazil,311230
1951,Catania,37.5027,15.0873,Italy,311584
1952,Purnea,25.78,87.47,India,310817
1953,Fort Collins,40.5478,-105.0656,United States,312666
1954,Port Elizabeth,-33.9581,25.6,South Africa,312392
1955,Alanya,36.5436,31.9997,Turkey,312319
1956,Asheville,35.5704,-82.5536,United States,312507
1957,Santa Clarita,34.4175,-118.4964,United States,312446
1958,Gorgan,36.83,54.48,Iran,312223
1959,Porto Velho,-8.7619,-63.9039,Brazil,306180
1960,Quy Nhon,13.7765,109.2237,Vietnam,311000
1961,Sambalpur,21.4704,83.9701,India,310852
1962,Yokkaichi,34.9667,136.6167,Japan,310145
1963,Chalco,19.2647,-98.8975,Mexico,310130
1964,Mannheim,49.4878,8.4661,Germany,309370
1965,Namp'o,38.7333,125.4,"Korea, North",310864
1966,Shahriar,35.6597,51.0592,Iran,309607
1967,Kasugai,35.25,136.9667,Japan,306876
1968,Sapele,5.8904,5.68,Nigeria,309162
1969,Blumenau,-26.9189,-49.0658,Brazil,309011
1970,Sariwon,38.5039,125.7589,"Korea, North",307764
1971,St. Catharines,43.1833,-79.2333,Canada,309319
1972,Matadi,-5.8167,13.4833,Congo (Kinshasa),306053
1973,Niagara Falls,43.06,-79.1067,Canada,308596
1974,Firozabad,27.15,78.3949,India,306409
1975,San Fernando,15.0333,120.6833,Philippines,306659
1976,St. Paul,44.9477,-93.104,United States,308096
1977,Vladikavkaz,43.0167,44.65,Russia,306978
1978,Yakutsk,62.0272,129.7319,Russia,307911
1979,Minna,9.6139,6.5569,Nigeria,304113
1980,Hisar,29.1489,75.7367,India,307024
1981,Puerto La Cruz,10.2167,-64.6167,Venezuela,306261
1982,Ciudad del Este,-25.5167,-54.6167,Paraguay,304282
1983,Podol'sk,55.4297,37.5444,Russia,299660
1984,Ciudad Victoria,23.7333,-99.1333,Mexico,305155
1985,Akita,39.7197,140.1025,Japan,306178
1986,Kumul,42.827,93.515,China,300848
1987,Vaughan,43.8333,-79.5,Canada,306233
1988,Oakashicho,34.6431,134.9975,Japan,299094
1989,Pekalongan,-6.8883,109.6753,Indonesia,298386
1990,Adiyaman,37.7644,38.2763,Turkey,304615
1991,Vila Nova de Gaia,41.1333,-8.6167,Portugal,302295
1992,Curepipe,-20.3162,57.5166,Mauritius,299975
1993,Cabanatuan City,15.4833,120.9667,Philippines,302231
1994,Oaxaca,17.0833,-96.75,Mexico,300050
1995,Armenia,4.5389,-75.6725,Colombia,301226
1996,Wollongong,-34.4331,150.8831,Australia,302739
1997,Brest,48.39,-4.49,France,300300
1998,Awka,6.2,7.0667,Nigeria,301657
1999,Iksan,35.9439,126.9544,"Korea, South",302310
2000,Taubate,-23.0333,-45.55,Brazil,302331
2001,Antioch,37.9789,-121.7958,United States,302419
2002,Lakeland,28.0556,-81.9545,United States,302284
2003,Cadiz,10.9587,123.3086,Philippines,283157
2004,Soc Trang,9.6,105.9719,Vietnam,300000
2005,Awasa,7.05,38.4667,Ethiopia,300100
2006,Mardan,34.1958,72.0447,Pakistan,300424
2007,Popayan,2.4411,-76.6061,Colombia,300837
2008,Praia Grande,-24.0058,-46.4028,Brazil,299261
2009,Qianzhou,28.3185,109.7318,China,301000
2010,Cotabato,7.2167,124.25,Philippines,299438
2011,Bidar,17.9229,77.5175,India,300136
2012,Bialystok,53.1167,23.1667,Poland,297288
2013,Merida,8.5833,-71.1333,Venezuela,300000
2014,Murmansk,68.9667,33.0833,Russia,298096
2015,Afyonkarahisar,38.7581,30.5386,Turkey,299673
2016,Valladolid,41.652,-4.7286,Spain,298412
2017,Jember,-8.1727,113.6873,Indonesia,298585
2018,Bahia Blanca,-38.7167,-62.2667,Argentina,299101
2019,Iskenderun,36.5804,36.17,Turkey,297943
2020,Al Mubarraz,25.4416,49.6642,Saudi Arabia,298562
2021,Petropolis,-22.505,-43.1789,Brazil,298142
2022,Al Kharj,24.1556,47.312,Saudi Arabia,298428
2023,Rampur,28.8154,79.025,India,296418
2024,Najran,17.4917,44.1322,Saudi Arabia,298288
2025,Chernihiv,51.5,31.3,Ukraine,294522
2026,Yangsan,35.3386,129.0386,"Korea, South",297532
2027,Vigo,42.2358,-8.7267,Spain,295364
2028,Oyster Bay,40.7845,-73.5139,United States,297531
2029,Valparaiso,-33.0458,-71.6197,Chile,296655
2030,Augsburg,48.3717,10.8983,Germany,295135
2031,Mbeya,-8.9,33.45,Tanzania,291649
2032,Limeira,-22.5647,-47.4017,Brazil,296440
2033,Rangpur,25.75,89.25,Bangladesh,294265
2034,Ponta Grossa,-25.09,-50.16,Brazil,292177
2035,Shiliguri,26.72,88.42,India,294546
2036,Aksaray,38.3686,34.0297,Turkey,295351
2037,Navotas,14.6667,120.9417,Philippines,249463
2038,Corum,40.5489,34.9533,Turkey,294807
2039,Bali,22.65,88.34,India,293373
2040,Ismailia,30.5833,32.2667,Egypt,293184
2041,Panipat,29.4004,76.97,India,292808
2042,Cagliari,39.2224,9.104,Italy,291511
2043,Delmas,18.55,-72.3,Haiti,284079
2044,Batna,35.55,6.1667,Algeria,290645
2045,Kunp'o,37.3675,126.9469,"Korea, South",285721
2046,Tambov,52.7167,41.4333,Russia,290365
2047,Iasi,47.1622,27.5889,Romania,290422
2048,Thies,14.7833,-16.9167,Senegal,293001
2049,Makurdi,7.73,8.53,Nigeria,292645
2050,Morioka,39.6833,141.15,Japan,292554
2051,Kherson,46.6333,32.6,Ukraine,291428
2052,Groznyy,43.3125,45.6986,Russia,291687
2053,Hong'an,47.21,123.61,China,289999
2054,Bafoussam,5.4667,10.4167,Cameroon,290768
2055,Resistencia,-27.4514,-58.9867,Argentina,291720
2056,Brasov,45.65,25.6,Romania,290743
2057,Juliaca,-15.4908,-70.1269,Peru,291189
2058,Graz,47.0667,15.4333,Austria,289440
2059,Karimnagar,18.4333,79.15,India,289821
2060,Setif,36.19,5.41,Algeria,288461
2061,Trenton,40.2236,-74.7641,United States,290716
2062,Kaunas,54.9,23.9333,Lithuania,288466
2063,Mulhouse,47.75,7.34,France,285121
2064,Hulin,45.7671,132.9646,China,290000
2065,Sekondi,4.9433,-1.704,Ghana,286248
2066,Lincoln,40.809,-96.6788,United States,289490
2067,Bhuj,23.2504,69.81,India,289429
2068,Ostrava,49.8356,18.2925,Czechia,287968
2069,Ichalkaranji,16.7,74.47,India,287570
2070,Tirupati,13.65,79.42,India,287482
2071,Springfield,37.1943,-93.2916,United States,288090
2072,Punto Fijo,11.7167,-70.1833,Venezuela,287558
2073,Plano,33.0502,-96.7487,United States,287677
2074,Irvine,33.6772,-117.7738,United States,287401
2075,Fukushima,37.7608,140.4733,Japan,286742
2076,Orleans,47.9025,1.909,France,282828
2077,Hospet,15.2667,76.4,India,286007
2078,Tacna,-18.0556,-70.2483,Peru,286240
2079,Korhogo,9.4578,-5.6294,C“te D?Ivoire,286071
2080,Constanta,44.1733,28.6383,Romania,283872
2081,Haifa,32.8,34.9833,Israel,281087
2082,Coacalco,19.6333,-99.0931,Mexico,278064
2083,Crato,-7.2342,-39.4094,Brazil,273883
2084,Limoges,45.8353,1.2625,France,283823
2085,Davenport,41.5563,-90.6052,United States,285362
2086,Coro,11.395,-69.6816,Venezuela,284266
2087,Bago,17.3433,96.4981,Burma,284179
2088,Fuquan,26.7039,107.5087,China,283904
2089,Tongchuanshi,35.08,109.03,China,282258
2090,Aizawl,23.7104,92.72,India,283021
2091,Taboao da Serra,-23.6019,-46.7528,Brazil,272177
2092,Sannai,24.16,80.83,India,283004
2093,Huozhou,36.5726,111.7176,China,282905
2094,Temuco,-38.7399,-72.5901,Chile,282415
2095,Sterlitamak,53.6333,55.95,Russia,280233
2096,Rockford,42.2597,-89.0641,United States,282762
2097,Tegal,-6.8667,109.1333,Indonesia,275789
2098,Ica,-14.0667,-75.7333,Peru,282407
2099,Newark,40.7245,-74.1725,United States,282011
2100,Jining,41.03,113.08,China,281716
2101,Chuncheon,37.8747,127.7342,"Korea, South",281596
2102,Malard,35.6658,50.9767,Iran,281027
2103,Pematangsiantar,2.96,99.06,Indonesia,278055
2104,Long Xuyen,10.3686,105.4234,Vietnam,278658
2105,Petrozavodsk,61.7833,34.35,Russia,278551
2106,South Bend,41.6767,-86.2696,United States,280498
2107,Mingaora,34.7717,72.36,Pakistan,279914
2108,Barasat,22.2333,88.45,India,278435
2109,Shreveport,32.4656,-93.7956,United States,280062
2110,Sincelejo,9.2994,-75.3958,Colombia,279031
2111,Viet Tri,21.3228,105.4019,Vietnam,277539
2112,Cherkasy,49.4444,32.0597,Ukraine,276360
2113,Wiesbaden,50.0825,8.24,Germany,278342
2114,Kostroma,57.7667,40.9333,Russia,277648
2115,Round Lake Beach,42.379,-88.0811,United States,279381
2116,Gyeongsan,35.8167,128.7333,"Korea, South",278500
2117,Katowice,50.25,19,Poland,276499
2118,Shaowu,27.3417,117.4869,China,278000
2119,Linxia Chengguanzhen,35.6,103.2167,China,274466
2120,Pachuca,20.1,-98.75,Mexico,277375
2121,Dire Dawa,9.5833,41.8667,Ethiopia,277000
2122,Khmelnytskyi,49.42,27,Ukraine,274176
2123,Aomori,40.8222,140.7475,Japan,276567
2124,Owo,7.2004,5.59,Nigeria,276574
2125,Savannah,32.0281,-81.1784,United States,276295
2126,Posadas,-27.3667,-55.8969,Argentina,275988
2127,Gatineau,45.4833,-75.65,Canada,276245
2128,Windsor,42.2833,-83,Canada,276165
2129,Tsu,34.7186,136.5056,Japan,275371
2130,Myrtle Beach,33.7096,-78.8843,United States,275579
2131,Mbandaka,0.0486,18.2603,Congo (Kinshasa),274996
2132,Tehuacan,18.4617,-97.3928,Mexico,274906
2133,La Guaira,10.6,-66.9331,Venezuela,275000
2134,Kunsan,35.9786,126.7114,"Korea, South",275155
2135,Nizhnevartovsk,60.9389,76.595,Russia,274575
2136,Chula Vista,32.6281,-117.0145,United States,274492
2137,Ratlam,23.3167,75.0667,India,273892
2138,Yeosu,34.7607,127.6622,"Korea, South",273761
2139,Crato,-7.4639,-63.04,Brazil,273883
2140,Derby,52.9167,-1.4667,United Kingdom,270500
2141,Kafr ad Dawwar,31.1417,30.1272,Egypt,262748
2142,Eugene,44.0563,-123.1173,United States,273439
2143,Gijon,43.5293,-5.6773,Spain,271780
2144,Chiayi,23.48,120.4497,Taiwan,268622
2145,Fuchu,35.6689,139.4778,Japan,263932
2146,Palmas,-10.2128,-48.3603,Brazil,272726
2147,Craiova,44.3333,23.8167,Romania,269506
2148,Maradi,13.5,7.1,Niger,267249
2149,Sorong,-0.8667,131.25,Indonesia,272349
2150,Majene,-3.5336,118.966,Indonesia,272377
2151,Bukhara,39.7747,64.4286,Uzbekistan,272500
2152,Thai Binh,20.4461,106.3422,Vietnam,268167
2153,Binjai,3.6,98.4853,Indonesia,269053
2154,Oral,51.2333,51.3667,Kazakhstan,271900
2155,Brahmanbaria,23.9667,91.1,Bangladesh,268279
2156,Sarta,36.5504,53.1,Iran,271467
2157,Imphal,24.82,93.95,India,268243
2158,Plymouth,50.3714,-4.1422,United Kingdom,267918
2159,Ichihara,35.4981,140.1156,Japan,270478
2160,Santo Domingo de los Colorados,-0.2542,-79.1719,Ecuador,270875
2161,Novorossiysk,44.7167,37.7667,Russia,270774
2162,Santa Ana,13.9833,-89.5333,El Salvador,270413
2163,Zhytomyr,50.2544,28.6578,Ukraine,266936
2164,Mito,36.3667,140.4667,Japan,269661
2165,Gombe,10.2904,11.17,Nigeria,270366
2166,Espoo,60.21,24.66,Finland,269802
2167,Drug,21.19,81.28,India,268806
2168,Bamenda,5.9333,10.1667,Cameroon,269530
2169,Handwara,34.4,74.28,India,269311
2170,Lucena,13.9333,121.6167,Philippines,266248
2171,Canton,40.8075,-81.3677,United States,269418
2172,Yoshkar-Ola,56.6328,47.8958,Russia,266675
2173,Nal'chik,43.4833,43.6167,Russia,265162
2174,Aswan,24.0889,32.8997,Egypt,267913
2175,Salamanca,20.5703,-101.1972,Mexico,260759
2176,Inegol,40.0806,29.5097,Turkey,268155
2177,Chernivtsi,48.2908,25.9344,Ukraine,266550
2178,Yao,34.6269,135.6008,Japan,266386
2179,Sumare,-22.8219,-47.2669,Brazil,265955
2180,Lubbock,33.5659,-101.8878,United States,267648
2181,Yanbu`,24.0943,38.0493,Saudi Arabia,267590
2182,Sumy,50.9068,34.7992,Ukraine,265758
2183,Tshikapa,-6.4167,20.8,Congo (Kinshasa),267462
2184,Anantapur,14.6833,77.6,India,267161
2185,San Pablo,14.0667,121.3167,Philippines,266068
2186,Reading,40.34,-75.9267,United States,267155
2187,Winter Haven,28.0118,-81.7017,United States,267069
2188,Myeik,12.4394,98.6003,Burma,266720
