0,city_ascii,lat,long,country,population
8474,Hartford,43.621,-96.9424,United States,3354
25846,Hockinson,45.7302,-122.4833,United States,5001
25847,Montevideo,44.9505,-95.7153,United States,5001
25843,Midfield,33.4552,-86.9226,United States,5002
25844,Gillespie,39.1258,-89.8173,United States,5002
25841,Worland,44.0026,-107.9543,United States,5003
25842,Oak Park Heights,45.0324,-92.8099,United States,5003
25840,Nottingham,43.1242,-71.121,United States,5004
25837,Hudson,31.3285,-94.8014,United States,5005
25838,Dwight,41.0987,-88.424,United States,5005
25839,Ridgeland,32.468,-80.9176,United States,5005
25836,Greenfield,39.3535,-83.3884,United States,5008
25835,Swoyersville,41.2975,-75.8799,United States,5009
25834,Mullins,34.2042,-79.2535,United States,5010
25833,West Salem,43.8989,-91.0883,United States,5015
25831,Wakefield,43.5916,-71.0098,United States,5016
25832,Sabattus,44.095,-70.0662,United States,5016
25829,Granville Township,40.5735,-77.6129,United States,5017
25830,Caruthersville,36.1814,-89.6664,United States,5017
25826,Charlestown,43.2469,-72.3939,United States,5019
25827,Abbeville,34.1787,-82.3774,United States,5019
25825,Sea Cliff,40.8441,-73.6442,United States,5020
25822,Olyphant,41.4507,-75.5753,United States,5023
25823,Pine Township,41.1681,-80.0657,United States,5023
25824,Dulles Town Center,39.0265,-77.4196,United States,5023
25821,Commercial,39.2763,-75.0407,United States,5026
25820,Summit,32.0619,-110.9483,United States,5027
25819,King George,38.2807,-77.1896,United States,5028
25817,La Crescent,43.8299,-91.3043,United States,5029
25816,Whiskey Creek,26.5733,-81.8903,United States,5030
25815,Citrus Park,33.5304,-112.444,United States,5033
25812,Krum,33.2652,-97.2256,United States,5036
25813,East Flat Rock,35.2802,-82.4171,United States,5036
25814,Barling,35.3284,-94.2792,United States,5036
8406,Mechanicville,42.9037,-73.6895,United States,5037
25811,Harrisburg,43.4321,-96.7037,United States,5038
25809,Chester,42.9672,-71.2509,United States,5039
25810,Amelia,39.0229,-84.2184,United States,5039
25808,Bowie,33.5566,-97.844,United States,5040
25806,Summit,43.0504,-88.4815,United States,5041
25807,Morganville,40.3756,-74.2444,United States,5041
25805,Dundee,28.0115,-81.5995,United States,5044
25804,Yarmouth Port,41.71,-70.2257,United States,5045
25802,Deerfield,42.522,-72.6097,United States,5046
25803,Carver,44.76,-93.6305,United States,5046
25798,Livingston,30.71,-94.9381,United States,5048
25799,Springfield Township,40.5249,-75.2998,United States,5048
25800,Berkeley,41.8891,-87.9114,United States,5048
25801,Vancleave,30.5483,-88.6675,United States,5048
25796,Clifton,33.0249,-109.2883,United States,5049
25795,Jericho,44.4764,-72.9629,United States,5055
25792,Stewartstown,39.7528,-76.5925,United States,5057
25793,Garnet,33.9179,-116.4796,United States,5057
25787,Buckley,47.1615,-122.02,United States,5058
25788,Gretna,41.1319,-96.2447,United States,5058
25789,Wayne Township,40.583,-76.2294,United States,5058
25790,Lower Oxford,39.806,-75.9895,United States,5058
25785,Williamston,35.8468,-77.0655,United States,5060
25783,Canutillo,31.9185,-106.6006,United States,5061
25784,Monee,41.4181,-87.7499,United States,5061
25782,Munroe Falls,41.1386,-81.4344,United States,5063
25780,Kings Park,38.8026,-77.2396,United States,5064
25779,Doffing,26.2788,-98.3856,United States,5065
25777,Bay Hill,28.4558,-81.5122,United States,5066
25775,Alfred,42.2385,-77.7891,United States,5067
25776,Middle Paxton,40.3934,-76.8753,United States,5067
25774,Rockingham,43.1815,-72.5014,United States,5068
25772,McKenzie,36.1371,-88.5077,United States,5070
25770,Scott Township,41.0219,-76.4169,United States,5071
25771,Glencoe,33.9449,-85.9319,United States,5071
25768,De Motte,41.1988,-87.1973,United States,5073
25765,Midway North,26.1872,-98.0188,United States,5074
25766,Offutt AFB,41.1207,-95.9209,United States,5074
25767,Canterbury,41.6979,-71.9998,United States,5074
25763,Colebrookdale,40.3468,-75.6464,United States,5075
25762,Fox Chapel,40.5247,-79.8898,United States,5076
25760,Paradise Hills,35.1981,-106.7023,United States,5079
25758,North Fond du Lac,43.8107,-88.4861,United States,5081
25759,Crestwood,38.3356,-85.4839,United States,5081
25756,Rio Hondo,26.2347,-97.5817,United States,5082
25753,Colesville,42.1742,-75.6627,United States,5085
25751,Candor,42.2318,-76.3329,United States,5089
8403,Mayfair,36.7693,-119.7612,United States,5091
25750,Brownfields,30.5467,-91.1225,United States,5092
8402,South Pasadena,27.7526,-82.7394,United States,5095
25747,West Mead,41.6266,-80.1247,United States,5097
25745,Marion,41.7091,-70.7635,United States,5100
25742,Belleview,29.0609,-82.0565,United States,5101
25743,Chadron,42.826,-103.0025,United States,5101
25740,Buellton,34.6152,-120.1943,United States,5102
25741,Daleville,31.2915,-85.7117,United States,5102
25735,Poplar Grove,42.3516,-88.8353,United States,5104
25736,Scott City,37.2243,-89.536,United States,5104
25737,Portland,42.8696,-84.899,United States,5104
25731,San Leon,29.4901,-94.9403,United States,5106
25732,Schuylkill Haven,40.6284,-76.1729,United States,5106
25728,Mexico,43.4549,-76.205,United States,5107
25729,Shanor-Northvue,40.9104,-79.9157,United States,5107
25730,Utica,42.629,-83.0218,United States,5107
25725,Shelby,43.1738,-78.3868,United States,5110
25722,Suncook,43.1382,-71.4529,United States,5111
25723,Carmi,38.0863,-88.1718,United States,5111
25719,Adams,43.8511,-76.0379,United States,5114
25714,Colona,41.4678,-90.3445,United States,5120
8401,Kenneth City,27.8155,-82.7162,United States,5121
25711,Schuyler Falls,44.6578,-73.5842,United States,5121
25712,Simonton Lake,41.7478,-85.9657,United States,5121
25713,Lone Grove,34.1809,-97.2559,United States,5121
25707,Flagler Beach,29.4716,-81.1303,United States,5123
25708,Rainsville,34.4939,-85.8435,United States,5123
25705,Spring Valley,41.3357,-89.2034,United States,5125
25706,Osceola,41.0302,-93.7829,United States,5125
25702,Sergeant Bluff,42.3976,-96.3517,United States,5127
25701,Humboldt,42.7232,-94.2245,United States,5128
25700,Primera,26.2237,-97.7528,United States,5130
25698,Denair,37.5262,-120.7994,United States,5131
25699,Paris,44.2445,-70.4883,United States,5131
25697,Dickinson,42.1301,-75.9097,United States,5132
25696,Fort Rucker,31.3428,-85.7154,United States,5134
25693,Colville,48.5454,-117.8986,United States,5135
25694,Northumberland,43.1621,-73.6305,United States,5135
25690,Brady,31.1322,-99.3697,United States,5137
25691,Margaret,33.6735,-86.468,United States,5137
25692,Bliss Corner,41.6054,-70.9421,United States,5137
8398,Turtle Creek,40.4085,-79.8214,United States,5138
25688,Weisenberg,40.6051,-75.7099,United States,5140
8397,Glendale,39.7036,-104.9352,United States,5141
25683,St. James,33.9467,-78.1132,United States,5141
25684,Ayden,35.4694,-77.4167,United States,5141
25685,Waterbury,44.3851,-72.746,United States,5141
25686,St. Clairsville,40.0792,-80.8997,United States,5141
25680,Bristol,42.5378,-88.0149,United States,5142
25681,Tice,26.6758,-81.8171,United States,5142
25682,Red Oak,41.0141,-95.2248,United States,5142
25679,Birdsboro,40.262,-75.8099,United States,5143
25677,Boiling Spring Lakes,34.0322,-78.068,United States,5146
25678,Odessa,38.9988,-93.9666,United States,5146
25675,Lakeview,34.9777,-85.2539,United States,5147
25676,Ottawa,41.0203,-84.0354,United States,5147
25671,Warm Mineral Springs,27.0469,-82.2702,United States,5149
25669,Grambling,32.5276,-92.7124,United States,5150
25670,Lake Township,41.4549,-75.3754,United States,5150
25668,Broadalbin,43.0764,-74.1574,United States,5153
25666,Grosse Pointe,42.3915,-82.9118,United States,5154
25665,Erwin,35.3226,-78.6734,United States,5156
25664,Holland,40.5966,-75.1221,United States,5157
25661,Ettrick,37.2435,-77.4287,United States,5159
25662,South Haven,41.5438,-87.1367,United States,5159
25659,Three Points,32.0596,-111.2866,United States,5161
25658,Lake City,44.4453,-92.2796,United States,5162
25655,Maplewood,47.3716,-122.5689,United States,5163
25656,Zephyrhills South,28.2152,-82.1886,United States,5163
25653,Cold Spring Harbor,40.8608,-73.4488,United States,5164
25648,Creve Coeur,40.6425,-89.5983,United States,5169
25649,Morris,45.5856,-95.9048,United States,5169
25647,North Salem,41.333,-73.6042,United States,5172
25644,Collegeville,40.1873,-75.4581,United States,5174
25645,Richmond,39.2755,-93.9731,United States,5174
8394,West Loch Estate,21.3617,-158.0246,United States,5177
25641,Parker,33.057,-96.6248,United States,5177
25640,Firthcliffe,41.4409,-74.0353,United States,5178
25638,Algona,43.0743,-94.2302,United States,5182
25637,Mount Olive,35.1997,-78.0662,United States,5183
25636,Ghent,42.312,-73.6509,United States,5184
25633,Pound Ridge,41.2115,-73.5747,United States,5185
25631,Thiells,41.2067,-74.0122,United States,5186
25632,Carlisle,42.53,-71.3513,United States,5186
25628,Attica,40.2874,-87.2452,United States,5187
25627,Washington Township,40.8467,-75.1972,United States,5188
25626,Sawmills,35.8162,-81.4779,United States,5189
25622,Hampshire,42.1124,-88.5122,United States,5190
25623,Ocean Bluff-Brant Rock,42.1006,-70.6625,United States,5190
25620,River Ridge,28.2669,-82.6257,United States,5191
25621,Hampden,42.0638,-72.4157,United States,5191
25619,Bisbee,31.4126,-109.9179,United States,5193
25617,Upper Yoder,40.2995,-78.9907,United States,5195
25615,Bethel Township,40.4485,-76.42,United States,5196
25616,Obetz,39.8671,-82.9451,United States,5196
25614,West Wendover,40.7407,-114.0783,United States,5197
25612,Springfield,42.3246,-85.2371,United States,5198
25608,South Bay,26.677,-80.7265,United States,5200
25609,Gardnertown,41.5328,-74.0594,United States,5200
25610,Thatcher,32.832,-109.7595,United States,5200
25606,Ravena,42.4755,-73.8113,United States,5202
25604,Roseburg North,43.2653,-123.3025,United States,5207
25600,Tichigan,42.8087,-88.215,United States,5208
25601,Lake Wildwood,39.235,-121.2003,United States,5208
25602,Wenham,42.6008,-70.8826,United States,5208
25603,Montrose,45.0668,-93.9206,United States,5208
25597,Warren,42.2002,-72.2006,United States,5210
25596,Londonderry Township,40.1814,-76.6964,United States,5211
25594,Maine,42.2,-76.0314,United States,5212
25595,Lake Montezuma,34.6414,-111.796,United States,5212
25591,Quantico Base,38.5228,-77.3187,United States,5213
25590,Hutchinson Island South,27.3243,-80.2425,United States,5214
25588,Center,31.793,-94.1796,United States,5215
25589,Clarinda,40.738,-95.034,United States,5215
25587,Elmsford,41.0541,-73.8143,United States,5216
25586,Martic,39.8721,-76.3144,United States,5217
25584,Newfield,42.3377,-76.613,United States,5218
25582,Kelly,40.9984,-76.9245,United States,5219
25579,Gilmer,32.7317,-94.946,United States,5220
25580,Williamsville,42.9623,-78.7418,United States,5220
25581,Bedford,40.0456,-78.4998,United States,5220
25577,Union City,40.1995,-84.8206,United States,5223
8391,Highwood,42.206,-87.8128,United States,5224
25574,Kalaheo,21.9159,-159.5236,United States,5224
25575,Springfield,32.3634,-81.3029,United States,5224
25576,Chisago City,45.3474,-92.9116,United States,5224
8390,Friendship Heights Village,38.9633,-77.09,United States,5225
25572,Ballston Spa,43.0068,-73.8525,United States,5226
25573,Byron,32.6474,-83.7541,United States,5226
25571,Hollywood,32.7523,-80.2106,United States,5227
25568,Bangor,40.8678,-75.2085,United States,5228
25566,Walton,42.1741,-75.1273,United States,5229
25565,Greene,42.3187,-75.7692,United States,5230
25563,McGregor,31.4187,-97.4283,United States,5231
25564,Winterset,41.3457,-94.0137,United States,5231
25562,Conklin,42.0399,-75.8342,United States,5232
25560,Wrightsboro,34.2895,-77.9217,United States,5233
25559,Salem,39.5681,-75.4724,United States,5235
25558,Bolton,42.4362,-71.6073,United States,5236
25556,Ranson,39.325,-77.8666,United States,5239
25553,Walkertown,36.1578,-80.1642,United States,5242
25554,North Stonington,41.4697,-71.8755,United States,5242
25551,McGuire AFB,40.0285,-74.5883,United States,5246
25549,Calistoga,38.5818,-122.5824,United States,5247
8389,Pine Manor,26.5727,-81.8775,United States,5248
25548,Perry,41.4648,-112.0401,United States,5248
25545,Pawcatuck,41.3774,-71.8492,United States,5249
25544,Eagleton Village,35.7885,-83.9363,United States,5250
25541,Centerport,40.8943,-73.3714,United States,5251
25539,Venus,32.4312,-97.102,United States,5252
8385,Albertson,40.7715,-73.6482,United States,5254
25534,Giddings,30.1833,-96.9279,United States,5254
25535,Wadesboro,34.9645,-80.0746,United States,5254
25533,Holdrege,40.4395,-99.3773,United States,5255
25531,East Granby,41.9424,-72.741,United States,5256
25529,West Vincent,40.1256,-75.6477,United States,5257
25524,Mena,34.5812,-94.2369,United States,5261
25525,Grandwood Park,42.3929,-87.9871,United States,5261
25523,West Rockhill,40.3686,-75.3489,United States,5263
25522,Carroll Township,40.3364,-77.1735,United States,5265
25521,Wind Lake,42.823,-88.1573,United States,5266
25520,Rothschild,44.8761,-89.6173,United States,5267
25517,Forsyth,33.0347,-83.9381,United States,5270
25516,West Yarmouth,41.6496,-70.2487,United States,5271
25511,Samsula-Spruce Creek,29.0484,-81.0628,United States,5272
25512,Pontotoc,34.2532,-89.0091,United States,5272
25510,Cave Springs,36.2701,-94.2225,United States,5276
25508,Grayson,38.3317,-82.9371,United States,5277
25505,Titusville,41.6273,-79.6699,United States,5279
25506,Big Bear Lake,34.2429,-116.8951,United States,5279
25507,St. Clair,42.8262,-82.493,United States,5279
25504,Midway,40.5183,-111.4745,United States,5280
25502,Zephyrhills West,28.2311,-82.2052,United States,5281
25500,New Ipswich,42.7489,-71.8747,United States,5284
8383,Broadmoor,37.6914,-122.4811,United States,5286
25495,Lakehills,29.6237,-98.9448,United States,5288
25496,Iola,37.9274,-95.4006,United States,5288
25492,Myrtletown,40.7888,-124.1286,United States,5290
25491,Orange,38.2486,-78.1127,United States,5291
25489,Kings Point,40.8162,-73.7407,United States,5292
25486,Mount Carmel,36.562,-82.6618,United States,5294
25485,Waynesville,37.8207,-92.22,United States,5295
25483,Medina,26.929,-99.2614,United States,5296
25482,Williamson,34.7082,-112.5342,United States,5297
25479,Alton,43.4906,-71.2462,United States,5298
25480,Brookline,42.7464,-71.6705,United States,5298
25478,Centerville,40.7294,-92.8718,United States,5299
25477,Bulverde,29.7744,-98.4364,United States,5300
25475,Brent,32.9421,-87.1753,United States,5302
25474,Timber Pines,28.469,-82.5999,United States,5303
25470,Hightstown,40.2686,-74.5253,United States,5304
25471,Cameron,30.8608,-96.9762,United States,5304
25467,Union Beach,40.4454,-74.1699,United States,5305
25468,Fairport,43.099,-77.4427,United States,5305
25462,Jaffrey,42.8294,-72.0597,United States,5307
25463,Wilton,38.413,-121.2127,United States,5307
25464,Savannah,39.9391,-94.8279,United States,5307
25460,Floral City,28.7065,-82.309,United States,5308
25461,Delhi Hills,39.0871,-84.6178,United States,5308
25459,Fruitland,38.3214,-75.6246,United States,5309
25458,Hadley,42.3556,-72.5692,United States,5310
25456,Lehighton,40.8306,-75.7166,United States,5313
25455,Uhrichsville,40.4005,-81.3515,United States,5314
25452,South Sarasota,27.2856,-82.5333,United States,5316
25451,Batesburg-Leesville,33.9125,-81.5313,United States,5318
8379,Shillington,40.3029,-75.967,United States,5319
8380,Bret Harte,37.6021,-121.0045,United States,5319
25449,Cavalero,47.9846,-122.0743,United States,5320
25447,Sterling,60.5405,-150.8089,United States,5321
25445,Jefferson Township,40.7803,-79.8304,United States,5325
25443,Wake Village,33.424,-94.1188,United States,5327
25438,Salamanca,42.1631,-78.7233,United States,5330
25439,Westernport,39.488,-79.0429,United States,5330
25435,East Port Orchard,47.5193,-122.6183,United States,5331
25436,Lake Fenton,42.8453,-83.7086,United States,5331
25431,Fairview,41.732,-73.9139,United States,5332
25432,Exton,40.0307,-75.6303,United States,5332
25429,Jonesboro,32.2348,-92.7098,United States,5333
8375,South Highpoint,27.9086,-82.7162,United States,5335
8376,Edgewater,39.7507,-105.0626,United States,5335
25428,Palmerton,40.8023,-75.616,United States,5336
25426,North Dansville,42.5583,-77.6915,United States,5337
25427,Morganfield,37.6869,-87.8876,United States,5337
25423,West Hills,40.8198,-73.4339,United States,5338
25419,Belle Fourche,44.6642,-103.8564,United States,5341
25414,Travelers Rest,34.9684,-82.4417,United States,5346
25409,Mattawa,46.737,-119.904,United States,5349
25402,Shepherdstown,39.4318,-77.8048,United States,5351
25403,Turpin Hills,39.1063,-84.3703,United States,5351
25404,North Oaks,45.1002,-93.0882,United States,5351
25397,Palmview South,26.2164,-98.378,United States,5352
25398,Anthony,31.9876,-106.5933,United States,5352
25399,Dickinson,40.1008,-77.2468,United States,5352
25400,Doney Park,35.2687,-111.5053,United States,5352
25401,De Soto,38.9686,-94.9548,United States,5352
25394,Rio Pinar,28.5271,-81.2628,United States,5354
25395,Englewood Cliffs,40.8822,-73.9466,United States,5354
25393,Ward,35.0117,-91.9577,United States,5358
25392,East Moriches,40.8097,-72.7581,United States,5359
25390,Frankford,41.1615,-74.7381,United States,5361
25388,St. Paul Park,44.836,-92.9949,United States,5362
25384,Sunset,41.1392,-112.0285,United States,5364
25379,Manchester,39.6584,-76.8881,United States,5367
8371,Kaser,41.1214,-74.0686,United States,5368
25374,Rockdale,30.6542,-97.0089,United States,5368
25375,Estacada,45.2987,-122.3338,United States,5368
25373,Bridgton,44.0481,-70.7362,United States,5369
25366,Connell,46.6622,-118.8404,United States,5370
25367,Manchester-by-the-Sea,42.5815,-70.7682,United States,5370
25368,Polson,47.6886,-114.1411,United States,5370
25361,Cleveland,34.5971,-83.7621,United States,5372
25362,Lisbon,40.7752,-80.7628,United States,5372
25363,Mount Carmel,39.0978,-84.2995,United States,5372
25360,Marilla,42.8251,-78.5322,United States,5373
25357,Newport,41.1785,-76.0486,United States,5374
25358,Caldwell,39.7467,-81.5127,United States,5374
25359,Trenton,40.0819,-93.603,United States,5374
25356,Orwigsburg,40.6541,-76.104,United States,5376
25354,Chinle,36.1504,-109.5794,United States,5378
25352,Vernon,43.066,-75.5356,United States,5380
25351,Bellows Falls,43.1344,-72.455,United States,5381
25350,Oneonta,33.9392,-86.4929,United States,5382
25347,La Grange,29.9129,-96.8767,United States,5384
25348,Minot AFB,48.4209,-101.3381,United States,5384
25349,Jamul,32.7184,-116.8709,United States,5384
25344,Auburn,42.9906,-71.3438,United States,5385
25345,Central,34.7234,-82.7787,United States,5385
25342,Northfield,42.1026,-87.7791,United States,5386
25337,Pinardville,43.001,-71.5171,United States,5390
25338,Vienna,43.2344,-75.7777,United States,5390
25339,Manitou Springs,38.8576,-104.9128,United States,5390
25336,Smiths Station,32.5284,-85.096,United States,5391
25333,New Castle,39.6685,-75.5692,United States,5392
25334,Redstone,39.9809,-79.8451,United States,5392
25331,Pinckneyville,38.0851,-89.3718,United States,5393
25330,Monticello,40.0341,-88.5729,United States,5396
25328,Mocksville,35.9006,-80.5631,United States,5397
25326,Warren,33.6113,-92.0677,United States,5399
25325,Valatie,42.4134,-73.6778,United States,5400
25324,Valparaiso,30.4926,-86.5079,United States,5401
8369,Tara Hills,37.9939,-122.3188,United States,5405
25315,Gilbertsville,40.3219,-75.609,United States,5408
25316,Canal Fulton,40.8895,-81.5882,United States,5408
25317,Apple Valley,40.4389,-82.3481,United States,5408
25312,Fort Lee,37.2357,-77.3325,United States,5409
25313,Coal City,41.2772,-88.2803,United States,5409
25311,New Hempstead,41.1488,-74.0485,United States,5410
25310,Kenai,60.5619,-151.1985,United States,5411
25308,Ferriday,31.6343,-91.5562,United States,5412
25307,Denver City,32.968,-102.8318,United States,5413
8368,Kensington,37.9084,-122.2805,United States,5415
25306,Angier,35.512,-78.7405,United States,5415
25304,Lafayette,36.5242,-86.0307,United States,5417
25305,Charleston,36.9179,-89.3344,United States,5417
25303,Jackson,33.292,-83.9678,United States,5418
25301,Basehor,39.1332,-94.9333,United States,5419
25300,Morristown,44.5485,-72.6376,United States,5420
25295,Monaca,40.6833,-80.2736,United States,5421
25296,Columbia,41.6939,-72.3072,United States,5421
25292,Hanamaulu,21.9954,-159.3493,United States,5422
25293,Waynesboro,33.0909,-82.0146,United States,5422
25289,Littlefield,33.9191,-102.3349,United States,5423
25290,Lucerne Valley,34.4427,-116.9021,United States,5423
25285,Violet,29.8962,-89.892,United States,5424
25286,Coraopolis,40.5148,-80.1627,United States,5424
25283,Rockwood,35.8693,-84.6731,United States,5425
25284,Bar Harbor,44.3852,-68.2711,United States,5425
25281,Fruitland,44.0195,-116.9221,United States,5426
25279,Honeoye Falls,42.9557,-77.5903,United States,5428
25275,Black River Falls,44.2981,-90.842,United States,5430
25270,Rye,43.0141,-70.7607,United States,5434
25271,Northwood,41.6089,-83.4836,United States,5434
25266,Robbins,41.6431,-87.708,United States,5438
25267,Sherwood Manor,42.0125,-72.566,United States,5438
25263,South Pittsburg,35.0111,-85.7183,United States,5439
25264,Arlington Heights,41.0039,-75.2116,United States,5439
25265,Eaton Rapids,42.5092,-84.653,United States,5439
25262,Bear Valley Springs,35.1775,-118.646,United States,5442
8366,Waipio Acres,21.4689,-158.0173,United States,5443
25260,Springhill,33.0019,-93.4613,United States,5444
25261,North Sewickley,40.8055,-80.2837,United States,5444
25257,Colby,39.3843,-101.0459,United States,5445
25256,Carlisle,39.5807,-84.3201,United States,5446
25255,Terrell Hills,29.4771,-98.4472,United States,5447
25254,Glencoe,44.7699,-94.1512,United States,5448
25252,Jim Thorpe,40.8712,-75.7433,United States,5449
25253,Hidden Valley,39.1673,-84.8444,United States,5449
25246,Marlin,31.3085,-96.8934,United States,5454
25242,Woodside,37.4222,-122.2591,United States,5458
8365,Shaw Heights,39.8566,-105.039,United States,5459
25238,Pana,39.3828,-89.0642,United States,5463
25236,New Holland,40.1008,-76.09,United States,5464
25235,Buckner,38.3867,-85.4503,United States,5465
25231,Vernon,41.6255,-80.2189,United States,5467
25227,Lemmon Valley,39.6879,-119.8364,United States,5469
25228,Williams,39.1498,-122.1389,United States,5469
25229,Rincon Valley,32.1101,-110.6889,United States,5469
25230,Harwinton,41.755,-73.0582,United States,5469
25224,Indian Wells,33.7036,-116.3396,United States,5470
25222,Manchester,47.5519,-122.5517,United States,5471
25223,Quincy,39.8148,-77.5493,United States,5471
25218,Sparta,35.9347,-85.4726,United States,5476
25215,Somerdale,39.8454,-75.0218,United States,5477
25216,Greenville,31.8437,-86.6379,United States,5477
25211,Breckenridge,32.7566,-98.9125,United States,5478
25212,Severance,40.527,-104.8642,United States,5478
25213,Muldrow,35.4039,-94.5969,United States,5478
25214,Peculiar,38.7306,-94.4736,United States,5478
25209,Lyons,43.0882,-76.9996,United States,5479
25208,Manteo,35.9013,-75.661,United States,5482
25203,Collinsville,36.3718,-95.8611,United States,5483
25201,Wahneta,27.9574,-81.7288,United States,5484
25198,Wolfforth,33.5148,-102.0066,United States,5486
25199,Beekmantown,44.7719,-73.4997,United States,5486
25195,Loudon,43.321,-71.4413,United States,5488
25196,Independence,40.8801,-74.8788,United States,5488
25197,Fort Plain,42.9316,-74.6277,United States,5488
25194,Stokesdale,36.2318,-79.9834,United States,5489
25191,Sidney,42.3073,-75.2772,United States,5493
25187,Jamestown,41.5149,-71.377,United States,5496
25186,Holdenville,35.0836,-96.4004,United States,5497
25183,Highland Lakes,33.397,-86.6497,United States,5500
25184,Anamosa,42.1091,-91.2758,United States,5500
25181,Swartz Creek,42.9626,-83.826,United States,5501
25180,Hamptonburgh,41.4484,-74.254,United States,5502
25179,Bethany,41.4261,-72.9931,United States,5504
25177,Wellston,39.1172,-82.5375,United States,5507
25176,Marbletown,41.8699,-74.1628,United States,5509
25173,Penn Township,39.8226,-75.8742,United States,5511
25174,Winston,43.12,-123.4242,United States,5511
25171,Elberton,34.1064,-82.8705,United States,5512
25172,Paola,38.5784,-94.862,United States,5512
25168,Carlinville,39.2774,-89.8761,United States,5514
8363,Palm Springs North,25.9351,-80.3339,United States,5515
25167,Baxley,31.7643,-82.3508,United States,5515
25165,Estherville,43.3998,-94.8343,United States,5516
25163,Massanetta Springs,38.3899,-78.834,United States,5517
25162,Germantown,39.6324,-84.3645,United States,5519
25155,Old Bethpage,40.7557,-73.4544,United States,5522
25156,Clare,43.8258,-84.763,United States,5522
25157,Tonganoxie,39.1083,-95.0829,United States,5522
25153,Greenwich Township,40.6791,-75.1121,United States,5523
25151,Weiser,44.2547,-116.9689,United States,5524
25148,Elmwood,29.9555,-90.188,United States,5525
25149,Leacock,40.0406,-76.1117,United States,5525
25150,Hopewell Township,39.7582,-76.5906,United States,5525
25146,Atlanta,33.1136,-94.1672,United States,5526
25145,Rochester,41.76,-70.8385,United States,5527
25142,Falcon Heights,44.9899,-93.177,United States,5528
25140,Islip Terrace,40.7506,-73.1872,United States,5529
25141,Old Fig Garden,36.7989,-119.8051,United States,5529
25138,Carroll Township,40.1813,-79.9313,United States,5530
25134,Colorado City,32.3994,-100.8582,United States,5533
25135,Weldon Spring,38.7118,-90.6513,United States,5533
25132,Pelham Manor,40.893,-73.8057,United States,5534
25131,Farmers Loop,64.9061,-147.6957,United States,5535
25130,Zeeland,42.8139,-86.0129,United States,5536
25128,Ada,40.7681,-83.8253,United States,5537
25126,Barre,42.4201,-72.1061,United States,5539
25127,Waterville,41.5015,-83.7365,United States,5539
25125,Exeter,41.3338,-75.8214,United States,5541
25120,Taylorsville,35.9175,-81.1754,United States,5544
25121,Wappingers Falls,41.5984,-73.9182,United States,5544
25122,Palermo,39.4313,-121.5225,United States,5544
25123,Lake Park,30.6852,-83.1875,United States,5544
8360,Belmar,40.1798,-74.0255,United States,5545
25117,Brookshire,29.7824,-95.9515,United States,5548
25115,Vinita,36.6364,-95.177,United States,5550
25114,Poland,44.0463,-70.39,United States,5552
25112,Sweetwater,35.6029,-84.4717,United States,5553
25107,Nashville,35.9692,-77.9555,United States,5554
25108,Leadville,39.2473,-106.2934,United States,5554
25103,Wayne,42.2379,-97.01,United States,5557
25104,Duquesne,40.3732,-79.8502,United States,5557
25102,Stroudsburg,40.9838,-75.1972,United States,5558
25101,Fort Washington,40.1407,-75.1925,United States,5559
25099,Eureka,40.7148,-89.2775,United States,5560
25100,Frankenmuth,43.3321,-83.7395,United States,5560
25096,Waterford,42.7646,-88.216,United States,5562
25097,Lake Bluff,42.2826,-87.851,United States,5562
25093,Slinger,43.3318,-88.2799,United States,5565
8358,Deer Park,39.2039,-84.3977,United States,5566
25092,New Carlisle,39.9446,-84.0257,United States,5568
25091,Chackbay,29.8817,-90.7742,United States,5573
25090,Harrietstown,44.243,-74.2363,United States,5576
25087,Bessemer City,35.2841,-81.283,United States,5577
25088,Seminole,35.2346,-96.65,United States,5577
25086,Oxford,39.7858,-75.9801,United States,5581
25084,Byron,44.0379,-92.6411,United States,5582
25082,Upper Pottsgrove,40.2824,-75.6362,United States,5584
25079,Springfield Township,39.8466,-76.7112,United States,5586
25077,Honesdale,41.5774,-75.2524,United States,5589
25078,South Huntingdon,40.1702,-79.7001,United States,5589
25075,Semmes,30.7941,-88.2358,United States,5594
25071,Boothwyn,39.8357,-75.4453,United States,5596
25072,Linton,39.0356,-87.1586,United States,5596
25070,Dove Valley,39.5741,-104.8289,United States,5597
25068,Paradise Township,39.9859,-76.1066,United States,5598
25062,West Pennsboro,40.1798,-77.3335,United States,5603
25063,Rancho Murieta,38.5085,-121.0716,United States,5603
25064,Huntingburg,38.301,-86.9622,United States,5603
25060,Mansfield,32.0355,-93.7004,United States,5604
25061,Hartford City,40.4537,-85.3736,United States,5604
25058,Blaine,48.9839,-122.7414,United States,5607
25056,Cottleville,38.7513,-90.6582,United States,5608
25057,Bowling Green,39.3447,-91.2032,United States,5608
25054,Lake Delton,43.5932,-89.7842,United States,5609
25055,Dayton,39.1127,-84.464,United States,5609
25051,Mount Plymouth,28.8024,-81.535,United States,5610
25052,Anna,37.4612,-89.2388,United States,5610
25053,Kingstree,33.6665,-79.8292,United States,5610
25048,Jonesborough,36.2959,-82.4766,United States,5611
25049,Salton City,33.2994,-115.9609,United States,5611
25046,Tellico Village,35.6977,-84.2661,United States,5612
25047,Harris,40.7633,-77.7674,United States,5612
8354,Rochelle Park,40.9069,-74.0791,United States,5613
25039,Riga,43.0802,-77.8753,United States,5615
25035,New Boston,42.9774,-71.686,United States,5616
25036,Richland,43.5468,-76.1381,United States,5616
25032,Findlay,40.4782,-80.2811,United States,5619
25030,Blauvelt,41.0689,-73.9545,United States,5620
25031,Highland,41.7179,-73.9646,United States,5620
25026,Willow Springs,41.7332,-87.8859,United States,5621
25027,Groveport,39.8585,-82.8978,United States,5621
25020,Milton,42.7751,-88.943,United States,5627
25018,Alva,36.7892,-98.6648,United States,5628
25013,Wright,41.1211,-75.9046,United States,5633
25012,Gardiner,41.6949,-74.1869,United States,5636
25010,Kirkwood,42.0889,-75.8033,United States,5638
25008,Pontoon Beach,38.7208,-90.0609,United States,5641
8350,Twin Lakes,36.9646,-121.9896,United States,5642
25007,Champlain,44.9591,-73.4324,United States,5643
25005,Corydon,38.213,-86.1257,United States,5645
25001,Starke,29.9474,-82.1129,United States,5647
25002,Dandridge,36.0285,-83.4308,United States,5647
25003,Yosemite Lakes,37.1885,-119.7723,United States,5647
24999,Edna,28.9757,-96.6483,United States,5648
24996,Bright,39.2254,-84.8613,United States,5649
24995,Raton,36.8849,-104.4396,United States,5650
8349,Surfside,25.8787,-80.125,United States,5651
24994,Presque Isle,46.6868,-67.9874,United States,5651
24992,Wilmington,41.3204,-88.164,United States,5653
24993,Gardiner,44.191,-69.7921,United States,5653
24990,Wailea,20.6873,-156.4291,United States,5656
24987,Mathis,28.0909,-97.817,United States,5662
24985,Homestead Meadows North,31.8483,-106.1707,United States,5665
24984,Philomath,44.5422,-123.3599,United States,5666
24982,Siesta Key,27.2779,-82.5516,United States,5667
24976,Hopkinton,43.1979,-71.6968,United States,5670
24977,Pecan Acres,32.9703,-97.4727,United States,5670
24978,Paxtonia,40.3166,-76.7884,United States,5670
24973,North Manchester,41.0044,-85.775,United States,5671
24968,Pittstown,42.8647,-73.5051,United States,5674
24969,Hollidaysburg,40.4311,-78.393,United States,5674
24966,Princeton,37.3689,-81.0961,United States,5675
8347,New Brighton,40.7355,-80.3091,United States,5679
8346,Media,39.9198,-75.3888,United States,5682
24959,Forestbrook,33.7243,-78.9678,United States,5682
24957,James City,35.0592,-77.02,United States,5684
24955,Adams Township,40.2876,-78.7452,United States,5685
24953,Wrightsville,32.7265,-82.7197,United States,5688
8345,Sharon Hill,39.9075,-75.2678,United States,5689
24949,Princeton,37.1068,-87.8854,United States,5691
24942,Santa Teresa,31.8701,-106.6714,United States,5696
24940,Harvest,34.8558,-86.7521,United States,5700
24938,North Fort Lewis,47.122,-122.5966,United States,5701
24939,Demopolis,32.498,-87.8298,United States,5701
24936,Nazareth,40.74,-75.3132,United States,5702
24937,Chickasaw,30.7714,-88.0793,United States,5702
24934,Longswamp,40.4907,-75.6601,United States,5703
24935,Anadarko,35.0652,-98.2441,United States,5703
24932,Rumford,44.5347,-70.6154,United States,5705
24931,Spring Grove,42.4543,-88.2402,United States,5706
24929,Grafton,41.2808,-82.0367,United States,5707
24930,Douglass Hills,38.2366,-85.5499,United States,5707
8342,Lewisburg,40.9642,-76.8901,United States,5708
24925,Dripping Springs,30.1954,-98.094,United States,5708
24926,Penn Estates,41.0346,-75.2417,United States,5708
24921,Ulysses,37.5774,-101.3549,United States,5711
24918,Slaton,33.4421,-101.6476,United States,5713
24919,Saratoga,43.0604,-73.6474,United States,5713
24916,Grafton,39.3409,-80.0161,United States,5714
8341,South Tucson,32.1955,-110.9692,United States,5715
24914,Hampstead,34.3627,-77.7318,United States,5717
24912,South Haven,42.4011,-86.2677,United States,5719
8340,Bellevue,39.1011,-84.4776,United States,5721
24910,Oceanport,40.316,-74.0205,United States,5722
24907,New Gloucester,43.9641,-70.2959,United States,5723
8339,Mount Carmel,40.7959,-76.4121,United States,5724
24904,Cambria,35.5523,-121.0847,United States,5725
24901,Benton,32.6906,-93.74,United States,5732
24898,East Rockhill,40.4082,-75.2831,United States,5734
24896,Union Township,40.2477,-79.9843,United States,5735
24895,Fair Haven,40.3619,-74.0392,United States,5736
24894,Harris Hill,42.973,-78.6793,United States,5737
24891,Sinton,28.0392,-97.5154,United States,5738
24890,Warrenton,46.1685,-123.9302,United States,5739
24888,Linglestown,40.3445,-76.795,United States,5742
24886,Yoakum,29.2933,-97.1469,United States,5744
24882,Fort Wright,39.0462,-84.5362,United States,5745
24881,Asbury,42.5119,-90.7795,United States,5747
24880,Sansom Park,32.8028,-97.4021,United States,5748
24878,St. Augustine South,29.8449,-81.3156,United States,5750
24879,Volney,43.3594,-76.3732,United States,5750
24871,Greenacres,35.3831,-119.1184,United States,5757
8336,Penn Wynne,39.9867,-75.2715,United States,5758
24867,Strawberry,37.8925,-122.5078,United States,5759
24866,Lee,42.302,-73.2341,United States,5760
24862,Elbridge,43.0535,-76.4389,United States,5761
24863,Dickson City,41.4684,-75.6358,United States,5761
24864,Pauls Valley,34.7236,-97.2291,United States,5761
24861,Oak Point,33.1803,-96.9911,United States,5762
24859,Blairstown,40.9813,-74.9984,United States,5764
24857,Ramblewood,39.9322,-74.9527,United States,5765
24855,Sidney,41.134,-102.9681,United States,5767
8334,White City,40.5666,-111.8636,United States,5768
24854,Brush,40.2598,-103.6323,United States,5769
24851,Washingtonville,41.4296,-74.1578,United States,5770
24852,Crafton,40.4333,-80.0712,United States,5770
24847,Claverack,42.2235,-73.6873,United States,5771
24848,Attalla,34.0049,-86.104,United States,5771
24849,Belding,43.0968,-85.2331,United States,5771
24844,Gas City,40.4889,-85.5946,United States,5772
24845,Turner,44.2671,-70.2429,United States,5772
24841,Eaton,40.5256,-104.713,United States,5773
8332,Cutler,36.5263,-119.2884,United States,5774
24838,Palmview,26.2303,-98.3791,United States,5774
24839,Granite Shoals,30.5897,-98.3715,United States,5774
24835,Deschutes River Woods,43.9887,-121.3608,United States,5775
24833,Cambria,43.1766,-78.8202,United States,5777
24834,Hilton,43.29,-77.7925,United States,5777
24831,Peoria Heights,40.7466,-89.57,United States,5779
24830,Crockett,31.3177,-95.4564,United States,5780
24827,Little Silver,40.3357,-74.0346,United States,5782
24828,East Falmouth,41.5707,-70.5556,United States,5782
24825,The Village of Indian Hill,39.1916,-84.3344,United States,5786
24824,Marianna,30.7943,-85.226,United States,5787
24822,Villa Park,33.818,-117.8104,United States,5790
24819,Mendham,40.7828,-74.5943,United States,5792
24820,Patterson,29.6909,-91.3096,United States,5792
8330,Bay Harbor Islands,25.8878,-80.1335,United States,5793
24816,Norwood,40.9933,-73.951,United States,5793
24817,Portland,40.4375,-84.9833,United States,5793
8329,Plymouth,41.2404,-75.9505,United States,5794
24813,Boxborough,42.4884,-71.5178,United States,5794
24811,Wyndmoor,40.0856,-75.1941,United States,5795
24812,Mount Zion,39.7794,-88.8834,United States,5795
24805,Aptos,36.9912,-121.8934,United States,5797
24804,Idabel,33.9041,-94.8294,United States,5798
24802,Ross Township,40.8772,-75.3607,United States,5799
24800,Fellsmere,27.7241,-80.5975,United States,5800
24801,West Bountiful,40.8982,-111.9082,United States,5800
24797,Manasquan,40.1186,-74.045,United States,5806
24796,Beardstown,39.9994,-90.4178,United States,5807
24793,Burnet,30.7496,-98.2383,United States,5808
24794,Sewickley,40.2522,-79.731,United States,5808
24791,White Rock,35.8075,-106.2067,United States,5809
24790,South Hooksett,43.0337,-71.4256,United States,5811
24788,Charlestown,40.0851,-75.5588,United States,5813
24789,Volo,42.3298,-88.1599,United States,5813
24787,Lebanon,37.5689,-85.2578,United States,5817
24784,El Granada,37.5134,-122.466,United States,5819
24781,North Windham,43.8238,-70.4288,United States,5820
24776,Elverta,38.7185,-121.4455,United States,5821
24777,Orleans,41.7665,-69.9675,United States,5821
8328,Mayflower Village,34.116,-118.0096,United States,5822
24775,Woodstock,42.0557,-74.1653,United States,5822
24773,Fountainhead-Orchard Hills,39.6878,-77.7173,United States,5823
24770,Tupper Lake,44.2431,-74.4747,United States,5826
24768,Oreland,40.1148,-75.1801,United States,5827
24766,Tewksbury,40.6951,-74.7783,United States,5830
24767,Berne,40.6572,-84.9555,United States,5830
24764,Hellertown,40.5811,-75.3378,United States,5831
24762,Moosic,41.3584,-75.7027,United States,5832
24759,Greenwood,38.8508,-94.3378,United States,5833
8326,Naval Academy,38.9859,-76.488,United States,5834
24758,Luling,29.6814,-97.6468,United States,5834
24757,Roseland,40.8208,-74.3085,United States,5835
24755,Lower Heidelberg,40.3556,-76.0528,United States,5836
24753,Cambria,40.4931,-78.7448,United States,5837
24754,Chelsea,42.3132,-84.0188,United States,5837
24752,Cave Creek,33.8513,-111.9801,United States,5838
24749,Woodcliff Lake,41.0253,-74.0603,United States,5839
24750,Shady Side,38.8285,-76.5211,United States,5839
24751,Riverside,39.4777,-76.2385,United States,5839
24748,Wilson,43.2692,-78.8238,United States,5840
24747,Hartwell,34.3496,-82.9289,United States,5841
24746,Willow Park,32.7548,-97.6499,United States,5842
8325,Prospect Park,40.938,-74.1736,United States,5843
24745,Pelican Bay,26.2326,-81.8108,United States,5844
24743,Lyndon,44.545,-72.0076,United States,5845
24742,Hilmar-Irwin,37.4045,-120.8504,United States,5846
24741,Carterville,37.763,-89.0841,United States,5847
24737,Mount Arlington,40.919,-74.639,United States,5852
24734,New Martinsville,39.6636,-80.8569,United States,5853
24735,Breese,38.6138,-89.523,United States,5853
24732,Paulsboro,39.84,-75.2397,United States,5854
8323,McKees Rocks,40.4688,-80.063,United States,5855
24728,Eastwood,42.3028,-85.5447,United States,5858
24726,Spring Ridge,39.4043,-77.3413,United States,5859
24727,Orchard Homes,46.8559,-114.0778,United States,5859
24723,Durham,39.6232,-121.7875,United States,5863
24719,Paoli,40.042,-75.4912,United States,5864
24720,Atmore,31.0927,-87.4763,United States,5864
24721,Alma,35.4919,-94.2165,United States,5864
24722,Dowagiac,41.9834,-86.1126,United States,5864
24715,Margate City,39.3307,-74.5071,United States,5865
24716,Posen,41.6291,-87.6858,United States,5865
24717,Belton,34.5237,-82.4937,United States,5865
24711,Hutchins,32.6421,-96.7093,United States,5866
24712,Chester,41.357,-74.2769,United States,5866
24713,Glendale,38.5935,-90.3825,United States,5866
24709,Hermon,44.8141,-68.9087,United States,5867
24705,Marlow Heights,38.8237,-76.9485,United States,5869
24704,Houlton,46.1403,-67.8429,United States,5871
8320,Elsmere,39.7385,-75.5946,United States,5872
24702,Brookville,39.8393,-84.4176,United States,5874
24701,Windcrest,29.5149,-98.3818,United States,5876
24699,Las Flores,33.5838,-117.6235,United States,5877
24695,Nolanville,31.0754,-97.609,United States,5879
24696,Crosspointe,38.7253,-77.2638,United States,5879
24691,Booneville,34.6643,-88.5684,United States,5880
24690,Gustine,37.2545,-120.9949,United States,5882
24689,Stratmoor,38.7732,-104.7787,United States,5883
8318,Jamesburg,40.3494,-74.44,United States,5885
24688,Clyde,41.3046,-82.9782,United States,5886
24685,Pocahontas,36.2637,-90.9706,United States,5887
24686,Montezuma,32.2997,-84.0246,United States,5887
24680,Los Chaves,34.7332,-106.7631,United States,5890
24681,Loudon,35.7413,-84.3704,United States,5890
24682,Madisonville,35.5233,-84.363,United States,5890
24678,Willard,37.2929,-93.4171,United States,5891
24677,Raleigh Hills,45.4852,-122.7567,United States,5892
24674,Gray,29.6776,-90.7833,United States,5893
24673,Old Tappan,41.0163,-73.9856,United States,5894
24672,Independence,42.4622,-91.9027,United States,5895
8316,Norwood,39.8865,-75.2964,United States,5897
24669,Cut Off,29.5164,-90.3291,United States,5897
24665,Brookhaven,39.6062,-79.8812,United States,5900
24666,Wailua Homesteads,22.065,-159.3771,United States,5900
24663,Clanton,32.844,-86.623,United States,5901
24662,Selinsgrove,40.8003,-76.8647,United States,5902
24661,Chena Ridge,64.7941,-148.0357,United States,5903
24659,Luzerne,39.9715,-79.9357,United States,5905
24657,Woods Creek,47.8821,-121.8982,United States,5907
24658,Rosendale,41.8473,-74.0786,United States,5907
24651,West Modesto,37.618,-121.0343,United States,5911
24652,Upper Sandusky,40.8298,-83.2721,United States,5911
24650,Willington,41.8896,-72.2593,United States,5912
24648,Taylor,41.3957,-75.7147,United States,5913
24649,Staunton,39.0117,-89.7906,United States,5913
24645,Granville,40.0648,-82.5023,United States,5916
24643,Zebulon,35.8318,-78.3162,United States,5917
24640,Mineola,32.6461,-95.4775,United States,5919
24641,Wesley Hills,41.1579,-74.0768,United States,5919
24642,East Hanover,40.391,-76.6845,United States,5919
24638,New London,39.7743,-75.8797,United States,5921
24634,Homer,59.653,-151.5255,United States,5922
24635,Dumfries,38.567,-77.3233,United States,5922
24633,Woodcreek,30.0266,-98.1115,United States,5925
24630,Littleton,44.3322,-71.8097,United States,5927
24631,Pagosa Springs,37.2674,-107.0307,United States,5927
24626,Paradise,39.7558,-121.6063,United States,5928
24620,Sullivan City,26.2752,-98.5644,United States,5932
24616,Tracyton,47.6095,-122.6533,United States,5933
24617,Countryside,41.7741,-87.8752,United States,5933
24618,West Hattiesburg,31.3114,-89.374,United States,5933
24609,Goodrich,42.9147,-83.5092,United States,5935
24608,Trooper,40.1489,-75.3995,United States,5936
24606,Atlantic,41.3957,-95.0138,United States,5937
24602,Darlington,34.3015,-79.867,United States,5940
24599,Westville,41.5375,-86.9049,United States,5943
24597,Progreso,26.0962,-97.9566,United States,5944
24595,Gowanda,42.4612,-78.9339,United States,5945
24594,Fabens,31.5136,-106.1521,United States,5946
24590,Ocean City,30.4398,-86.6071,United States,5949
24591,Logan,39.7923,-75.355,United States,5949
24588,Hopedale,42.1247,-71.535,United States,5951
24581,Rocky Mount,37.0045,-79.8854,United States,5953
24579,Eastampton,40.001,-74.7553,United States,5954
24580,East Alton,38.884,-90.1073,United States,5954
24578,St. Clair,38.3479,-90.9934,United States,5955
24577,Sealy,29.7676,-96.1679,United States,5957
24576,Northville,42.4355,-83.489,United States,5958
24573,Fort Shawnee,40.6814,-84.1487,United States,5960
24570,Steelton,40.2258,-76.8254,United States,5962
24567,Vail,39.6386,-106.3607,United States,5964
24565,Hellam,40.0206,-76.5962,United States,5965
24566,Newport,35.6234,-91.2322,United States,5965
24562,Silver Lakes,34.7519,-117.3431,United States,5966
24563,Avra Valley,32.4195,-111.3393,United States,5966
24561,Lakemoor,42.3396,-88.2038,United States,5967
24560,North Hills,40.7765,-73.6778,United States,5969
24556,East Pasadena,34.1377,-118.0776,United States,5971
24555,Groton,42.5847,-76.3598,United States,5972
24552,Breinigsville,40.5394,-75.6344,United States,5975
24551,Finderne,40.5626,-74.5743,United States,5976
24548,Cresaptown,39.5912,-78.855,United States,5977
24547,Pevely,38.2863,-90.4005,United States,5978
24545,Northern Cambria,40.6561,-78.7784,United States,5981
8311,District Heights,38.8588,-76.8885,United States,5984
24543,Finley,46.1697,-119.0446,United States,5984
24540,Grayson Valley,33.6469,-86.6414,United States,5986
24535,Mullica,39.6018,-74.6805,United States,5987
24536,Pecan Plantation,32.3628,-97.6554,United States,5987
24537,Winfield,41.4098,-87.2623,United States,5987
24538,Dover,42.2366,-71.2842,United States,5987
24539,Lewistown,47.0514,-109.4524,United States,5987
24528,St. Thomas,39.9239,-77.8063,United States,5992
24525,Shields,43.4174,-84.0731,United States,5993
24523,Kingston,35.8713,-84.4959,United States,5994
24524,Winthrop,44.3116,-69.9615,United States,5994
24521,Tea,43.4511,-96.834,United States,5995
24519,Andover,41.0244,-74.7283,United States,5996
24520,Wheelersburg,38.7383,-82.8421,United States,5996
24518,Elburn,41.8838,-88.4615,United States,5997
24514,Hillsborough,43.1489,-71.9469,United States,5999
24515,Eldorado at Santa Fe,35.5273,-105.934,United States,5999
24513,Baldwin,44.954,-92.3709,United States,6000
24510,Du Quoin,38.0019,-89.2323,United States,6001
24505,Conley,33.6398,-84.3376,United States,6002
24506,Williamsburg,36.7392,-84.1647,United States,6002
24504,Davenport,28.1588,-81.6084,United States,6005
24503,Watchung,40.6432,-74.4391,United States,6006
24502,Maquoketa,42.0598,-90.6651,United States,6007
24500,Metropolis,37.1565,-88.7083,United States,6008
24497,Chillicothe,40.9157,-89.502,United States,6012
24496,Lake Mohegan,41.3165,-73.8475,United States,6013
24494,Eucalyptus Hills,32.885,-116.9453,United States,6017
24495,Cumberland,39.7844,-85.9458,United States,6017
24484,Rensselaer,40.9375,-87.1684,United States,6029
24483,Rib Mountain,44.9196,-89.6763,United States,6033
24480,Dacono,40.062,-104.9484,United States,6034
24481,Union,38.9472,-84.6731,United States,6034
24479,Barbourville,36.8667,-83.885,United States,6036
24476,Carrizo Springs,28.5266,-99.8589,United States,6043
24474,Hidden Valley Lake,38.8003,-122.5505,United States,6044
24470,Hainesport,39.9767,-74.8369,United States,6048
24467,Nelsonville,39.456,-82.2219,United States,6050
24460,Country Homes,47.7478,-117.4196,United States,6054
24461,Indian Hills,39.0894,-119.7977,United States,6054
24462,Stewartville,43.8605,-92.4896,United States,6054
24459,Village of Oak Creek,34.7813,-111.7606,United States,6057
24458,Windsor,42.0637,-75.6597,United States,6058
24454,Williams,40.6313,-75.2278,United States,6061
24455,Northfield,44.1453,-72.6841,United States,6061
24456,Delano,45.0383,-93.7922,United States,6061
24451,Johnson Lane,39.0489,-119.7245,United States,6065
24452,Anaconda,46.0607,-113.0679,United States,6065
24446,North Hobbs,32.7731,-103.125,United States,6068
24447,South Williamsport,41.2294,-77.0009,United States,6068
24448,Mendon,42.093,-71.5515,United States,6068
24445,Fort Ann,43.4698,-73.5231,United States,6069
24439,Westmoreland,43.1216,-75.4476,United States,6072
24440,Clifton Springs,42.9608,-77.1348,United States,6072
24438,Henderson,35.4446,-88.6531,United States,6073
24434,Ramtown,40.1144,-74.1492,United States,6076
24429,West Clarkston-Highland,46.4022,-117.0628,United States,6081
24430,South Apopka,28.6569,-81.5057,United States,6081
24431,Monroe Township,40.1612,-77.0701,United States,6081
24425,Lee Acres,36.7103,-108.0725,United States,6084
24426,Fairwood,38.9565,-76.778,United States,6084
24427,Ontario,40.771,-82.6105,United States,6084
24424,Ocean Shores,46.9685,-124.1521,United States,6085
24421,Willard,41.0518,-82.7232,United States,6086
24422,Senatobia,34.6081,-89.9762,United States,6086
8307,Larchmont,40.9258,-73.7529,United States,6087
24416,Harlan,36.8432,-83.3184,United States,6089
24415,Alpine,30.364,-103.665,United States,6090
24410,Simsbury Center,41.8808,-72.8111,United States,6091
24411,Shrewsbury,38.5866,-90.3282,United States,6091
24406,Jordan,44.6652,-93.6351,United States,6094
24404,Ranchettes,41.2186,-104.7729,United States,6097
24403,Amory,33.9813,-88.4823,United States,6098
24399,Mattydale,43.0992,-76.1388,United States,6102
24396,Rindge,42.7523,-72.0107,United States,6106
24397,Scenic Oaks,29.7038,-98.6713,United States,6106
24394,Edgewood,35.1318,-106.2151,United States,6107
24391,Los Ranchos de Albuquerque,35.1625,-106.6481,United States,6108
24387,Munford,35.4433,-89.8148,United States,6109
24388,Tarrant,33.5945,-86.7684,United States,6109
24385,Laie,21.6443,-157.928,United States,6111
24383,Bartonville,40.6398,-89.6608,United States,6113
24381,Dunlap,41.6346,-85.9235,United States,6115
24382,Beacon Falls,41.439,-73.0568,United States,6115
24378,Marcellus,42.9539,-76.3255,United States,6117
24379,Punxsutawney,40.9437,-78.9767,United States,6117
24377,Sky Lake,28.4611,-81.3912,United States,6119
24374,Isanti,45.4928,-93.2407,United States,6120
24372,Garrettsville,41.2843,-81.0933,United States,6123
24370,Lower Nazareth,40.7067,-75.3258,United States,6125
24366,Hurley,41.9622,-74.1159,United States,6126
24362,Carrollton,36.9394,-76.5264,United States,6131
24363,Cochran,32.3875,-83.3523,United States,6131
24359,Carlstadt,40.8247,-74.0613,United States,6132
24360,Lebanon,40.7278,-74.8903,United States,6132
24357,Waimanalo,21.3421,-157.7303,United States,6135
24354,Elm Grove,43.0479,-88.0867,United States,6136
24355,Heber Springs,35.5003,-92.0332,United States,6136
24356,Ashton-Sandy Spring,39.1515,-77.0065,United States,6136
24352,Tequesta,26.9618,-80.1011,United States,6138
24351,Cullowhee,35.3107,-83.1815,United States,6139
24349,Southampton,42.2308,-72.7386,United States,6140
24347,Plainfield,40.8185,-75.2609,United States,6142
24345,East Farmingdale,40.7336,-73.4169,United States,6143
24346,Glenarden,38.9293,-76.8577,United States,6143
24344,Comstock Northwest,42.3219,-85.518,United States,6144
24343,Bridgewater,38.3862,-78.9674,United States,6145
24341,Gardnerville,38.939,-119.7369,United States,6148
8303,Binghamton University,42.0893,-75.9684,United States,6149
24340,Lanett,32.8571,-85.2081,United States,6151
24336,Evansville,42.7781,-89.2967,United States,6152
24337,Cocoa West,28.3595,-80.7712,United States,6152
24338,Clinton,39.6608,-87.4045,United States,6152
24335,De Queen,34.0426,-94.342,United States,6153
24333,Chatham,41.6698,-69.9755,United States,6155
24332,Wilna,44.0562,-75.5903,United States,6156
24328,Pinehurst,30.1889,-95.7017,United States,6157
24329,Bellwood,37.406,-77.4363,United States,6157
24330,Homeland Park,34.4644,-82.6593,United States,6157
24327,Carthage,32.1526,-94.3368,United States,6158
24323,Montgomery,41.1709,-76.874,United States,6159
24324,Morrilton,35.1558,-92.7387,United States,6159
24322,Hebron,39.0626,-84.709,United States,6160
24320,Henryetta,35.4421,-95.9848,United States,6162
24319,Eagar,34.1058,-109.2956,United States,6164
24318,Chanceford,39.8832,-76.4757,United States,6166
24311,Mims,28.6928,-80.8468,United States,6171
24308,University at Buffalo,43.0025,-78.7887,United States,6173
24307,Corry,41.9259,-79.6358,United States,6175
24306,South Monroe,41.893,-83.4179,United States,6176
24304,West Greenwich,41.6291,-71.6671,United States,6179
24303,Eastman,32.1973,-83.1714,United States,6180
24299,Naples Park,26.2633,-81.8094,United States,6181
24297,Leonardtown,38.3039,-76.6396,United States,6182
24296,Sheridan,39.6466,-105.0181,United States,6183
24294,Keyes,37.5618,-120.9088,United States,6185
24291,Fort Edward,43.2294,-73.56,United States,6186
24292,Chamberlayne,37.628,-77.4288,United States,6186
24285,Heathcote,40.3908,-74.5756,United States,6189
24284,Satsuma,30.8577,-88.0632,United States,6190
24282,Union Gap,46.5566,-120.4977,United States,6200
24281,Everman,32.6296,-97.2827,United States,6201
8295,Kennett Square,39.8438,-75.7113,United States,6202
24280,Fishhook,61.711,-149.2657,United States,6203
24278,Twin Lakes,42.5192,-88.2489,United States,6204
24275,Montgomery Township,39.7717,-77.8979,United States,6207
24274,Covedale,39.1267,-84.637,United States,6209
24272,Kingston,42.9156,-71.0665,United States,6210
24273,Blakely,41.4859,-75.6012,United States,6210
24271,Pea Ridge,36.449,-94.1211,United States,6211
24268,Chelan,47.8414,-120.0263,United States,6212
24269,Blue Bell,40.1474,-75.2687,United States,6212
24270,Nephi,39.7072,-111.8323,United States,6212
24266,Brownville,44.0298,-76.053,United States,6213
24267,Wescosville,40.5617,-75.5489,United States,6213
8293,Fruitridge Pocket,38.5326,-121.4558,United States,6215
24261,Pea Ridge,38.4154,-82.3188,United States,6215
24253,Pratt,37.6764,-98.7451,United States,6220
24250,Addis,30.3652,-91.2659,United States,6221
24251,Verona,43.1592,-75.6189,United States,6221
24252,Fruit Heights,41.0277,-111.9081,United States,6221
24248,Edinboro,41.8762,-80.1246,United States,6222
24246,Kenedy,28.8176,-97.8518,United States,6223
24247,Hillandale,39.0254,-76.9751,United States,6223
8292,Savannah,33.2257,-96.9082,United States,6224
8291,Cameron Park,25.9705,-97.4775,United States,6226
24243,Glenwood,41.0446,-95.7408,United States,6226
24242,Lebanon,43.4033,-70.9115,United States,6230
24241,Newberry,29.6385,-82.6057,United States,6231
24240,Galax,36.6661,-80.9176,United States,6232
24238,Solvay,43.0573,-76.2126,United States,6234
24237,Orange Beach,30.2941,-87.5851,United States,6235
24236,Murillo,26.2642,-98.1233,United States,6236
24234,Boonville,38.0469,-87.2846,United States,6238
24233,Holly Springs,34.7768,-89.4466,United States,6239
24232,Sylvester,31.53,-83.8338,United States,6240
24231,New Whiteland,39.5617,-86.0996,United States,6241
24229,Dennis,39.2019,-74.8188,United States,6244
24226,Wilkins,40.4265,-79.823,United States,6247
24225,Walker,30.485,-90.8656,United States,6248
24224,Corcoran,45.1089,-93.5837,United States,6250
24220,Powell,44.7958,-108.7681,United States,6253
24221,Ashburnham,42.659,-71.9252,United States,6253
24217,Morris Plains,40.8357,-74.4786,United States,6255
24216,Mayfield,43.1248,-74.26,United States,6256
24215,Lake Alfred,28.1041,-81.7264,United States,6257
24212,Stowe,40.4829,-80.0734,United States,6260
24213,Oakland,44.5595,-69.7328,United States,6260
24211,Homer,42.6661,-76.1701,United States,6261
24209,Richmond,42.8094,-82.7518,United States,6262
24205,Lecanto,28.8359,-82.488,United States,6264
24204,Huntington Woods,42.4816,-83.1685,United States,6265
24203,Pigeon Forge,35.7977,-83.5623,United States,6266
24201,Iowa Park,33.9622,-98.6819,United States,6268
24191,New Castle,39.5776,-107.5267,United States,6275
24192,St. Robert,37.8244,-92.1532,United States,6275
24189,California,40.0692,-79.9152,United States,6276
8289,Pleasure Point,36.9618,-121.9715,United States,6277
24187,Wolfeboro,43.6117,-71.1705,United States,6278
24188,East Foothills,37.3827,-121.8138,United States,6278
24183,Stone Mountain,33.8034,-84.1724,United States,6281
24180,Bridgeport,33.21,-97.7708,United States,6286
24178,Inverness Highlands South,28.8007,-82.3371,United States,6288
24176,Antis,40.6221,-78.3563,United States,6291
24175,Mattapoisett,41.6687,-70.817,United States,6294
24170,Forest Hills,40.4251,-79.8544,United States,6298
24171,Rowley,42.7224,-70.8883,United States,6298
24169,Waveland,30.293,-89.3904,United States,6302
24168,Jeanerette,29.9157,-91.6758,United States,6303
24164,Pass Christian,30.327,-89.2436,United States,6307
24160,Ohio,40.5425,-80.0926,United States,6308
24161,South Run,38.7467,-77.2754,United States,6308
24162,Gulf Park Estates,30.3801,-88.7581,United States,6308
24155,Mascotte,28.611,-81.9107,United States,6315
8286,Lakeview,40.6775,-73.6493,United States,6317
24152,"Islamorada, Village of Islands",24.9408,-80.6097,United States,6317
24151,Barnhart,38.336,-90.4046,United States,6318
24144,White Oak,32.5313,-94.8564,United States,6322
24145,North East,42.2,-79.825,United States,6322
24142,Combee Settlement,28.0596,-81.9053,United States,6323
24143,Lionville,40.0524,-75.644,United States,6323
24139,Bensley,37.447,-77.442,United States,6327
24136,South Gate Ridge,27.2856,-82.497,United States,6328
24137,Hamlet,34.8891,-79.7099,United States,6328
24132,Silver Lake,34.1408,-77.909,United States,6330
24133,Red Lion,39.8986,-76.6078,United States,6330
24134,Pepper Pike,41.4801,-81.4619,United States,6330
24130,Granby,42.2608,-72.5036,United States,6333
24128,Cumberland,39.8915,-79.9898,United States,6334
24127,Bangor Base,47.7227,-122.7146,United States,6336
24125,St. John,38.7148,-90.3462,United States,6338
24122,Lely Resort,26.0889,-81.7031,United States,6340
24123,Kosciusko,33.0584,-89.5893,United States,6340
24121,Gladewater,32.5426,-94.9465,United States,6341
24119,Carmel Hamlet,41.415,-73.6855,United States,6345
8284,Kingston Estates,39.9188,-74.9898,United States,6346
24115,Swarthmore,39.9023,-75.3488,United States,6346
24110,Lincroft,40.3391,-74.1283,United States,6348
24111,Schuyler,41.4497,-97.0619,United States,6348
24112,Orange Lake,41.5319,-74.0936,United States,6348
24113,Tipton,40.282,-86.0422,United States,6348
24106,Sandown,42.9332,-71.1833,United States,6350
24107,Carroll Township,40.1142,-77.0191,United States,6350
24108,Dacula,33.9816,-83.8951,United States,6350
24109,Allegan,42.5299,-85.8462,United States,6350
24104,Buena Vista,43.4196,-83.8992,United States,6351
24102,Snyderville,40.7042,-111.5438,United States,6352
24099,Tabor City,34.1538,-78.8737,United States,6355
24098,Cynthiana,38.386,-84.2993,United States,6356
24097,Cobleskill,42.6841,-74.4478,United States,6357
24090,Keyser,39.4394,-78.9822,United States,6361
24087,Heathrow,28.7753,-81.3721,United States,6364
24088,Richboro,40.2262,-75.0006,United States,6364
24085,Lochbuie,40.0119,-104.7271,United States,6366
24082,Buena Vista,37.7319,-79.3569,United States,6367
24083,Sunbury,40.2485,-82.8804,United States,6367
24081,Johnsburg,42.383,-88.2476,United States,6368
24078,Meredith,43.6301,-71.5018,United States,6369
24079,Wharton,40.8999,-74.5808,United States,6369
24076,East Glenville,42.8614,-73.9206,United States,6371
24073,Nitro,38.4119,-81.8194,United States,6373
24071,Jasper,34.471,-84.4496,United States,6374
24066,Georges,39.8135,-79.7617,United States,6378
24063,Prosser,46.2068,-119.7662,United States,6380
24064,Rogersville,36.4081,-83.0043,United States,6380
24058,International Falls,48.5884,-93.4083,United States,6382
24057,Rushville,39.6172,-85.4463,United States,6383
24056,Ellenville,41.7009,-74.3609,United States,6384
24054,Newport,43.3649,-72.2001,United States,6386
24055,Belpre,39.2815,-81.5971,United States,6386
24052,Rhome,33.0647,-97.4779,United States,6387
24048,Steilacoom,47.1703,-122.5934,United States,6390
24049,Wollochet,47.2828,-122.5769,United States,6390
24050,Yaphank,40.8323,-72.9233,United States,6390
24051,Abilene,38.9229,-97.2251,United States,6390
24047,Rockford,43.1266,-85.5582,United States,6391
24043,Mila Doce,26.223,-97.9601,United States,6394
24044,Marlborough,41.6331,-72.4547,United States,6394
24040,Greenville,38.8866,-89.3893,United States,6395
24035,Mount Vernon,41.923,-91.4244,United States,6398
24033,Carolina Beach,34.0396,-77.8966,United States,6399
24034,Blackwell,36.8011,-97.3008,United States,6399
24031,Fenton,42.2009,-75.8012,United States,6400
24032,Howland Center,41.2483,-80.7444,United States,6400
24029,Hampstead,39.6104,-76.855,United States,6401
24030,Piedmont,34.7074,-82.4651,United States,6401
24026,Clarkston Heights-Vineland,46.3876,-117.0831,United States,6403
24022,Schriever,29.7334,-90.831,United States,6407
24023,Andalusia,31.3101,-86.4781,United States,6407
8279,Bronxville,40.9394,-73.8263,United States,6408
24020,Littlestown,39.7452,-77.0892,United States,6409
24016,Waikoloa Village,19.9285,-155.8185,United States,6412
24014,Garrett,41.3526,-85.1238,United States,6413
24015,Branford Center,41.2779,-72.8148,United States,6413
24013,Killingworth,41.3792,-72.5785,United States,6414
24010,Shamong,39.7781,-74.7272,United States,6415
24011,Walkersville,39.4832,-77.3559,United States,6415
24012,Eudora,38.9345,-95.0957,United States,6415
24005,Douglas,42.7541,-105.3968,United States,6421
24004,Salem,38.6048,-86.0977,United States,6422
24003,Valley City,46.9223,-98.0055,United States,6423
24001,Darnestown,39.096,-77.3033,United States,6424
23999,Lake Murray of Richland,34.1209,-81.2653,United States,6427
23998,Cheverly,38.9254,-76.914,United States,6428
23997,North Riverside,41.8461,-87.8263,United States,6429
23995,Hurricane,38.4293,-82.0168,United States,6430
23992,Oelwein,42.6715,-91.9133,United States,6433
23991,Liberty,30.0379,-94.788,United States,6435
23989,Devine,29.1457,-98.9049,United States,6436
23990,Litchfield Park,33.5024,-112.3586,United States,6436
23983,Vine Grove,37.8133,-85.9828,United States,6439
23981,Geneseo,41.4508,-90.154,United States,6440
23979,Lee,43.3257,-75.5175,United States,6441
23976,Emporia,36.6953,-77.5356,United States,6443
23977,Bridgeport,43.3706,-83.8828,United States,6443
23970,Ironwood,46.4522,-90.1505,United States,6448
23966,Cairo,42.2965,-74.0205,United States,6453
23965,Lackland AFB,29.3867,-98.6179,United States,6454
23963,Corinth,43.2269,-73.8847,United States,6455
23958,Glendive,47.1102,-104.7069,United States,6460
23955,Ridgeway,43.2619,-78.3806,United States,6464
23950,Ligonier,40.2348,-79.2137,United States,6466
23951,Sidney,47.7152,-104.168,United States,6466
23948,Jan Phyl Village,28.0201,-81.7933,United States,6467
23949,Genoa,42.0926,-88.6964,United States,6467
23944,Red Chute,32.5732,-93.606,United States,6468
23945,South Hill,42.4113,-76.4883,United States,6468
23946,Potomac Mills,38.6547,-77.3012,United States,6468
23947,Columbia,31.2564,-89.8266,United States,6468
23942,Penn Yan,42.6608,-77.0536,United States,6469
23940,Moraine,39.6983,-84.2459,United States,6470
23941,Laurel Bay,32.4599,-80.7869,United States,6470
23937,Edgemoor,39.7551,-75.507,United States,6471
23931,Irvington,41.0349,-73.8661,United States,6473
23932,Prestonsburg,37.6816,-82.7662,United States,6473
23926,Prairie du Chien,43.0429,-91.1373,United States,6477
23922,Theodore,30.5408,-88.1884,United States,6483
8277,Hewlett,40.6422,-73.6942,United States,6484
23919,East Shoreham,40.946,-72.8811,United States,6484
23920,Cheshire Village,41.5026,-72.8993,United States,6484
23921,Eliot,43.1488,-70.786,United States,6484
23913,Lynchburg,35.2846,-86.3587,United States,6488
23914,Camilla,31.2337,-84.2089,United States,6488
23909,Mulvane,37.4788,-97.2724,United States,6489
23908,East Rochester,43.112,-77.4869,United States,6490
8276,Ambler,40.1564,-75.2215,United States,6491
8274,Prospect Park,39.8858,-75.3074,United States,6492
8275,Saranap,37.8878,-122.076,United States,6492
23906,La Habra Heights,33.9602,-117.951,United States,6492
23904,Champion Heights,41.3031,-80.8514,United States,6495
8273,Contra Costa Centre,37.9261,-122.054,United States,6497
23903,Williamston,42.6835,-84.2836,United States,6498
23902,Monticello,36.8404,-84.8506,United States,6499
23900,Duanesburg,42.7799,-74.1805,United States,6501
23898,Granville,43.4188,-73.3086,United States,6503
23897,El Rio,34.2452,-119.1568,United States,6505
23895,Pimmit Hills,38.9105,-77.1991,United States,6506
23896,Rittman,40.9736,-81.7849,United States,6506
23891,Hamilton,42.7897,-75.494,United States,6511
23892,Collins,42.4908,-78.8623,United States,6511
23893,Avon,39.6445,-106.5133,United States,6511
23887,Otis Orchards-East Farms,47.703,-117.0854,United States,6514
23885,Milford,42.587,-83.6012,United States,6515
8272,West View,40.5182,-80.0333,United States,6516
23880,Martins Ferry,40.1014,-80.7253,United States,6517
23881,Russells Point,40.468,-83.8939,United States,6517
23877,Fairview,34.9296,-85.294,United States,6518
23875,Eagle,39.6368,-106.8123,United States,6519
23876,Bowleys Quarters,39.3198,-76.3858,United States,6519
23871,Valley Falls,35.0073,-81.9692,United States,6522
23870,Peterborough,42.8905,-71.9394,United States,6524
23867,Crozet,38.0645,-78.6962,United States,6526
23863,Swanton,44.9081,-73.1252,United States,6530
23862,Salem Township,40.4071,-79.5141,United States,6533
23860,Plattsmouth,41.0053,-95.894,United States,6534
23861,Hapeville,33.6609,-84.4093,United States,6534
23858,Elkin,36.2621,-80.8441,United States,6536
23856,Plaquemine,30.2834,-91.2429,United States,6539
23853,Slippery Rock,41.0695,-80.058,United States,6541
23854,Clairton,40.2976,-79.8853,United States,6541
23855,Oakmont,40.5201,-79.8365,United States,6541
23851,Fox Point,43.1581,-87.9013,United States,6543
23847,Kathleen,28.1224,-82.0387,United States,6546
23848,Portage,40.3868,-78.6746,United States,6546
23846,Cumming,34.2064,-84.1337,United States,6547
8267,Tuckahoe,40.953,-73.823,United States,6549
23845,Litchfield,45.1221,-94.5255,United States,6549
23842,Topsfield,42.6373,-70.9425,United States,6551
23841,Camp Swift,30.1885,-97.2933,United States,6553
23839,Lawrence,40.6042,-73.7149,United States,6556
23838,Plymouth Meeting,40.11,-75.2794,United States,6557
23834,Homestead Meadows South,31.811,-106.1643,United States,6559
23832,Cushing,35.9798,-96.7602,United States,6560
23830,Rossford,41.5832,-83.5692,United States,6562
23825,Yorketown,40.3064,-74.3385,United States,6565
23823,Stickney,41.8183,-87.773,United States,6566
23822,Thompson's Station,35.809,-86.8994,United States,6567
23820,Keene,32.3955,-97.3226,United States,6568
23821,Walnut Ridge,36.0851,-90.9463,United States,6568
23819,Harvard,42.5059,-71.5853,United States,6570
23816,Cold Spring,39.013,-84.4349,United States,6571
23811,Orlovista,28.5441,-81.4629,United States,6574
23812,Mont Belvieu,29.8524,-94.8784,United States,6574
23813,Enola,40.2908,-76.9348,United States,6574
23800,Tanglewilde,47.0512,-122.781,United States,6581
23797,Fairfield,44.6372,-69.6751,United States,6583
8264,Notre Dame,41.7014,-86.2378,United States,6584
8262,Forest Glen,39.0191,-77.0445,United States,6589
23790,Roslyn Heights,40.7787,-73.6396,United States,6591
23789,Granby,43.2918,-76.4408,United States,6592
23785,Allegheny Township,40.4583,-78.4768,United States,6594
23786,Washington,41.2982,-91.6928,United States,6594
23777,Porter,43.2517,-78.972,United States,6599
23778,Catasauqua,40.6531,-75.4643,United States,6599
23779,Essex,41.3499,-72.4146,United States,6599
23776,Amite City,30.7323,-90.5133,United States,6600
23774,Ambridge,40.5922,-80.2265,United States,6601
23775,Orchard Mesa,39.0363,-108.5169,United States,6601
23772,Normandy Park,47.4343,-122.3436,United States,6604
23773,Lago Vista,30.4519,-97.9908,United States,6604
23769,Trinity,35.8756,-80.0093,United States,6606
23770,Hamilton,34.1346,-87.9755,United States,6606
23765,Nevada,42.0186,-93.4635,United States,6608
23766,Talent,42.2404,-122.7807,United States,6608
23764,Meridianville,34.8729,-86.5722,United States,6609
23760,Kermit,31.854,-103.0924,United States,6613
23756,Maple Glen,40.1778,-75.1793,United States,6614
23755,Brewton,31.1111,-87.0737,United States,6615
23753,Scriba,43.4599,-76.4186,United States,6616
23754,Hillsboro,39.2123,-83.6112,United States,6616
23751,Winthrop Harbor,42.4805,-87.8294,United States,6618
23749,Myers Corner,41.5947,-73.8744,United States,6620
23747,North Caldwell,40.8629,-74.2576,United States,6621
23748,Beaver Dam,37.4042,-86.8742,United States,6621
23745,Battlefield,37.1194,-93.3683,United States,6622
8261,Paloma Creek South,33.21,-96.9327,United States,6624
23741,Dalton,42.4795,-73.1533,United States,6625
8260,Manorhaven,40.8399,-73.7127,United States,6627
23738,North Syracuse,43.1339,-76.1306,United States,6628
23739,Veneta,44.0471,-123.3514,United States,6628
23737,Belmont,39.065,-77.4965,United States,6629
8259,Guadalupe,33.3664,-111.9633,United States,6631
8258,Folcroft,39.8891,-75.277,United States,6632
8257,Cedarhurst,40.6252,-73.7278,United States,6633
23732,Air Force Academy,38.9942,-104.8639,United States,6633
23729,Tecumseh,35.2639,-96.9338,United States,6636
23727,Barrington,39.8689,-75.0514,United States,6642
23728,Pendleton,43.1015,-78.7664,United States,6642
23719,Cherry Hills Village,39.6375,-104.9481,United States,6647
23715,Sturtevant,42.6995,-87.9019,United States,6652
23712,Blairsville,40.4325,-79.2599,United States,6654
23710,Sandersville,32.9827,-82.8089,United States,6655
23709,Groesbeck,39.2292,-84.5964,United States,6656
23705,Linwood,39.3436,-74.5708,United States,6658
23706,Ashville,39.7239,-82.9575,United States,6658
23700,Belle Plaine,44.6188,-93.7643,United States,6660
8255,Lauderdale-by-the-Sea,26.199,-80.0972,United States,6664
23697,Church Hill,36.5204,-82.715,United States,6664
23694,Garden Home-Whitford,45.4642,-122.7589,United States,6666
23688,West Point,41.3642,-74.0118,United States,6670
23684,Crystal Lake,28.0371,-81.9063,United States,6671
23685,Savage,39.1485,-76.8228,United States,6671
23675,East Porterville,36.0573,-118.9713,United States,6679
23676,Berkley,41.8349,-71.0754,United States,6679
23674,Cherryville,35.3844,-81.3781,United States,6682
23672,Taneytown,39.657,-77.1683,United States,6685
8252,Castroville,36.765,-121.7535,United States,6686
23671,Dayton,45.1906,-93.4758,United States,6686
23668,Roeland Park,39.0358,-94.6374,United States,6688
23663,Green Hill,36.2349,-86.5733,United States,6695
23661,Dahlonega,34.5309,-83.9804,United States,6696
8251,Clifton Heights,39.9301,-75.2958,United States,6697
23658,Parkwood,47.5266,-122.5986,United States,6700
23652,Tunkhannock Township,41.0447,-75.4813,United States,6703
23651,Thermalito,39.4909,-121.615,United States,6704
23644,Byron Center,42.8121,-85.7279,United States,6710
23641,Broadway,38.6083,-78.8016,United States,6712
23642,Medina,45.0326,-93.5834,United States,6712
23638,Rumson,40.3626,-74.0046,United States,6714
23639,Homeacre-Lyndora,40.8721,-79.9211,United States,6714
23636,Woodfin,35.6458,-82.5914,United States,6717
23635,Roaring Spring,40.3348,-78.3958,United States,6718
23633,Green Knoll,40.6048,-74.615,United States,6720
23634,Sitka,57.2401,-135.3153,United States,6720
23631,Lacy-Lakeview,31.6292,-97.1052,United States,6721
23626,Washington Township,40.7389,-75.6392,United States,6725
23625,Lincoln,42.4266,-71.3086,United States,6726
23622,Plymouth,43.7438,-71.7221,United States,6731
23623,Litchfield,39.1959,-89.6295,United States,6731
23620,Bayville,40.9076,-73.5602,United States,6732
23618,Snowflake,34.5225,-110.0913,United States,6733
23619,Rupert,42.6189,-113.674,United States,6733
23617,Allendale,41.0333,-74.1333,United States,6734
8250,Naples Manor,26.0892,-81.7254,United States,6735
23615,Mount Healthy,39.2338,-84.5469,United States,6736
23613,Hanover,42.4922,-79.1253,United States,6737
23611,Montevallo,33.1246,-86.8476,United States,6738
23605,Lake Hallie,44.8921,-91.4199,United States,6747
23606,Ellettsville,39.2322,-86.6232,United States,6747
23602,Pembroke Park,25.9852,-80.1777,United States,6749
23603,Groveland,42.752,-71.0149,United States,6749
23601,Bullskin,40.0803,-79.5124,United States,6751
23598,New Hartford,41.8442,-73.0055,United States,6755
23594,Lexington,35.6618,-88.3945,United States,6763
23592,Upper Nazareth,40.7369,-75.3346,United States,6764
23591,South Hanover,40.2962,-76.7085,United States,6766
23590,Cortland,41.332,-80.7195,United States,6768
23588,Millersville,36.3968,-86.7111,United States,6769
23585,East Coventry,40.2014,-75.6162,United States,6770
23583,Whitmore Lake,42.4235,-83.7524,United States,6771
23582,Williamson,43.2417,-77.1923,United States,6772
23580,Lutherville,39.4239,-76.6176,United States,6773
23573,Inniswold,30.3982,-91.071,United States,6777
23568,Mount Hope,41.46,-74.5281,United States,6781
23569,Lincoln,33.5935,-86.1371,United States,6781
23566,Exeter,41.5658,-71.6308,United States,6782
23564,Kingston,41.4738,-71.5236,United States,6789
23562,Gypsum,39.6285,-106.9334,United States,6790
23563,Fowler,36.6243,-119.6737,United States,6790
23559,Mexia,31.6809,-96.4833,United States,6792
23560,Marvin,34.989,-80.8032,United States,6792
23557,Columbus,43.3354,-89.03,United States,6793
23551,Perry,30.109,-83.5821,United States,6796
23552,Valley Park,38.5513,-90.4924,United States,6796
23545,Kimberly,44.267,-88.3377,United States,6802
23546,South Patrick Shores,28.202,-80.6137,United States,6802
23547,Taylor Mill,39.0092,-84.4988,United States,6802
23542,Marion,34.1787,-79.3966,United States,6804
23541,Aquia Harbour,38.4597,-77.3806,United States,6805
23537,East Buffalo,40.9337,-76.9135,United States,6806
23534,Kirtland,41.5969,-81.3406,United States,6812
23532,St. Francis,45.3991,-93.3902,United States,6813
23530,Moores Mill,34.8491,-86.5222,United States,6815
23526,Hoosick,42.8903,-73.3561,United States,6816
23527,Mount Vernon,37.9364,-87.8959,United States,6816
23525,Bermuda Dunes,33.7434,-116.2874,United States,6817
23522,River Park,27.3214,-80.3307,United States,6818
23518,Old Greenwich,41.0253,-73.5691,United States,6819
23515,Crossett,33.128,-91.9631,United States,6820
23512,Huntertown,41.2155,-85.1715,United States,6824
23511,East Earl,40.1235,-76.0332,United States,6825
23509,Trumann,35.6771,-90.5261,United States,6826
23510,Mendota,41.5553,-89.1042,United States,6826
23506,Clay Township,40.2353,-76.2369,United States,6831
23497,Fircrest,47.2307,-122.5157,United States,6835
23495,Merrimac,42.8386,-71.0119,United States,6839
23494,Lovejoy,33.4426,-84.3176,United States,6840
23491,Sunnyvale,32.7974,-96.5577,United States,6841
23492,Bee Cave,30.3084,-97.9629,United States,6841
23493,Lucas Valley-Marinwood,38.0405,-122.5765,United States,6841
23488,Upper Mount Bethel,40.8984,-75.1386,United States,6843
23489,Moapa Valley,36.6078,-114.4566,United States,6843
23485,Eldridge,41.639,-90.5809,United States,6846
23482,Lake Mathews,33.825,-117.3683,United States,6848
23478,Greenbrier,36.4239,-86.7976,United States,6852
23477,Kingsland,30.6651,-98.4545,United States,6853
23475,Milford,39.1699,-84.2811,United States,6855
23474,North Branch,45.5137,-92.9601,United States,6856
23473,Russellville,36.8393,-86.895,United States,6858
23472,Youngtown,33.5846,-112.3047,United States,6859
23469,Jackson Township,41.008,-75.3578,United States,6860
23467,King,36.2766,-80.3564,United States,6861
23468,Latimer,30.4972,-88.8607,United States,6861
23463,Loomis,38.8093,-121.1955,United States,6866
23461,Tabernacle,39.8192,-74.6551,United States,6868
23459,Huron,41.3913,-82.5635,United States,6869
23457,Mead,47.7795,-117.35,United States,6870
23455,St. Martinville,30.1263,-91.8319,United States,6872
23456,Harrisville,41.2853,-111.9859,United States,6872
23453,Beacon Square,28.2118,-82.7504,United States,6873
23451,Seward,40.9099,-97.0957,United States,6876
23452,Sturgis,44.411,-103.4975,United States,6876
23450,Belle Haven,38.7775,-77.0574,United States,6877
23447,Chestertown,39.2182,-76.0714,United States,6878
23446,Milo,42.615,-77.0031,United States,6879
23443,Farmington,43.3629,-71.076,United States,6884
23442,Mountainside,40.6811,-74.36,United States,6885
23439,Southampton Township,40.0423,-77.4569,United States,6886
23440,Ephraim,39.3564,-111.5847,United States,6886
23437,University Park,41.4461,-87.7154,United States,6887
23436,Hondo,29.3531,-99.162,United States,6889
23432,Colusa,39.2059,-122.0125,United States,6891
23433,Union,39.909,-84.2896,United States,6891
23434,Junction City,44.2067,-123.2101,United States,6891
23431,Dunbar,39.9637,-79.6027,United States,6893
23429,Bridge City,29.9321,-90.1594,United States,6894
23430,Great Barrington,42.211,-73.3416,United States,6894
23427,Byron,42.1224,-89.2665,United States,6896
23425,Lake Mills,43.0776,-88.9054,United States,6897
23426,Atkinson,42.837,-71.1605,United States,6897
23423,Gulf Breeze,30.3685,-87.1769,United States,6900
23424,Village St. George,30.3598,-91.0672,United States,6900
23420,Clover Creek,47.1404,-122.3827,United States,6902
23421,Indian River Estates,27.3564,-80.2983,United States,6902
23418,Laurence Harbor,40.4489,-74.2494,United States,6904
23419,Westbrook,41.3069,-72.4665,United States,6904
23416,Pollock Pines,38.7564,-120.5904,United States,6905
23415,Upper Freehold,40.1552,-74.5283,United States,6906
23414,Phelps,42.9574,-77.048,United States,6907
23410,Woodland,45.9145,-122.7506,United States,6911
23408,Springs,41.0212,-72.1584,United States,6912
23409,Mira Monte,34.4284,-119.2853,United States,6912
23400,Lewisburg,37.8096,-80.4327,United States,6917
23401,Viola,41.1287,-74.0855,United States,6917
23399,Black Jack,38.7993,-90.264,United States,6918
23397,Spring Lake Park,45.1161,-93.2451,United States,6919
23395,Treasure Island,27.774,-82.7663,United States,6921
23391,Avon,42.8955,-77.7341,United States,6924
23392,Page,36.9426,-111.5071,United States,6924
23390,Mount Ivy,41.1926,-74.0297,United States,6925
8237,South Valley Stream,40.6557,-73.7186,United States,6930
23383,Willow Oak,27.9216,-82.0244,United States,6930
23384,Kentfield,37.9481,-122.5496,United States,6930
23381,Fort Meade,27.7645,-81.8058,United States,6932
23379,Madison,44.0062,-97.1084,United States,6933
23376,Gleneagle,39.0453,-104.8288,United States,6936
23377,Vandalia,38.9754,-89.1117,United States,6936
23372,Decatur,33.2262,-97.5876,United States,6939
23367,Barberton,45.7136,-122.6115,United States,6941
23368,Madison Park,40.4461,-74.2959,United States,6941
23369,Franklin Township,39.8865,-80.1807,United States,6941
23370,Whitinsville,42.1146,-71.6688,United States,6941
23366,Cochituate,42.329,-71.3576,United States,6942
23363,Prairie View,30.085,-95.9897,United States,6944
23364,Ocean City,38.3998,-75.0715,United States,6944
23359,Epping,43.0501,-71.0747,United States,6945
23360,Bremen,33.7085,-85.1495,United States,6945
23356,Desert Palms,33.779,-116.293,United States,6947
23354,Peru,44.582,-73.556,United States,6950
23349,Bern,40.4005,-75.9933,United States,6952
23350,Paintsville,37.8167,-82.8088,United States,6952
23348,Catoosa,36.1832,-95.7662,United States,6953
23347,Stratford,39.829,-75.0156,United States,6955
23344,Wytheville,36.953,-81.0881,United States,6956
23343,Mechanicstown,41.4472,-74.3914,United States,6957
23341,Bondurant,41.6986,-93.4551,United States,6958
23337,Cos Cob,41.0513,-73.5931,United States,6959
23338,Creswell,43.9212,-123.016,United States,6959
23334,Ashland,46.5801,-90.8715,United States,6962
23335,Leitchfield,37.4862,-86.2857,United States,6962
23333,Hamilton,46.2527,-114.1598,United States,6964
23331,Milltown,40.4504,-74.4351,United States,6967
23330,Sedona,34.8574,-111.7951,United States,6969
23329,Brier,47.7924,-122.2734,United States,6970
23327,Stevensville,38.9745,-76.3184,United States,6973
23323,Summit Township,42.0375,-80.0513,United States,6976
23321,Keyport,40.4327,-74.2011,United States,6977
23322,Conemaugh Township,40.2432,-78.966,United States,6977
23320,Joshua Tree,34.1236,-116.3128,United States,6980
23315,Hillsboro,39.1668,-89.4735,United States,6984
23311,Adel,31.1272,-83.4232,United States,6989
23309,Crete,40.6254,-96.9575,United States,6995
23307,Tappan,41.0269,-73.952,United States,6996
23305,Providence,39.9092,-76.233,United States,6998
23302,Westmere,42.6883,-73.8744,United States,7001
23297,St. Augustine Beach,29.8414,-81.2713,United States,7004
23296,West Glens Falls,43.3019,-73.6874,United States,7005
23293,Cazenovia,42.9122,-75.8636,United States,7007
23288,Fort Myers Shores,26.7135,-81.7383,United States,7010
23289,San Martin,37.0829,-121.5963,United States,7010
23280,Mount Carmel,38.4187,-87.7694,United States,7016
23275,Kiel,43.9167,-88.0266,United States,7018
23274,East End,34.5554,-92.3261,United States,7019
8233,Orland Hills,41.5905,-87.8413,United States,7023
8230,Great Neck Plaza,40.7869,-73.7261,United States,7027
23264,Osprey,27.1914,-82.48,United States,7028
23265,Willis,30.4314,-95.4832,United States,7028
23263,Gouverneur,44.3673,-75.4838,United States,7029
23261,Archbald,41.5077,-75.5453,United States,7030
23258,Collinsville,36.7215,-79.9121,United States,7031
23259,Newbury,42.7706,-70.8747,United States,7031
23255,Laurium,47.2351,-88.4382,United States,7032
23253,Nuevo,33.8011,-117.1415,United States,7033
23250,Truth or Consequences,33.1864,-107.2589,United States,7035
23251,Rancho Calaveras,38.1248,-120.857,United States,7035
23249,Marksville,31.1247,-92.0652,United States,7036
23248,Gateway,61.5737,-149.2389,United States,7037
23241,Orange City,43.0023,-96.0566,United States,7044
23237,Rochester,41.059,-86.196,United States,7046
23234,Oak Ridge,36.174,-79.9916,United States,7049
23235,Fort Payne,34.4557,-85.6965,United States,7049
23230,Noble,35.1385,-97.371,United States,7053
23226,Hudson Falls,43.3042,-73.5818,United States,7056
23227,Sandston,37.512,-77.3149,United States,7056
23223,Whitemarsh Island,32.0304,-81.0109,United States,7058
23221,St. Helena,38.5063,-122.4682,United States,7059
23220,Berrien Springs,41.9474,-86.3403,United States,7060
8229,Waikele,21.4025,-158.0058,United States,7062
23219,East Vincent,40.1684,-75.5946,United States,7062
23218,Lemoore Station,36.2633,-119.9049,United States,7063
23214,Barnesville,33.0509,-84.1527,United States,7064
8228,Ridley Park,39.8785,-75.3251,United States,7065
23213,Highland Heights,39.0355,-84.4567,United States,7065
23211,Delaware Township,41.2372,-74.9281,United States,7066
8227,Twin Rivers,40.263,-74.4917,United States,7067
23209,Sausalito,37.858,-122.4932,United States,7068
23210,Batesville,34.3147,-89.9249,United States,7068
23207,Nebraska City,40.6762,-95.8613,United States,7069
23205,Fort Pierce North,27.4736,-80.3594,United States,7070
23206,Wellsville,42.1206,-77.9219,United States,7070
23203,Ben Lomond,37.0782,-122.0882,United States,7071
23200,Milton-Freewater,45.9348,-118.3913,United States,7074
23199,Roosevelt,40.2924,-110.0093,United States,7075
23194,Clarkson,43.2533,-77.9228,United States,7079
23195,Flatwoods,38.521,-82.7195,United States,7079
8226,Souderton,40.311,-75.3224,United States,7082
23189,Osceola,35.6942,-89.9934,United States,7085
23190,Syracuse,41.4226,-85.7492,United States,7085
23186,Ladera Heights,33.9972,-118.374,United States,7090
23183,Dunbar,38.3688,-81.7345,United States,7093
23181,Fort Myers Beach,26.4324,-81.9168,United States,7094
23179,Lake Lorraine,30.4407,-86.5657,United States,7095
23173,Bedminster,40.4223,-75.1938,United States,7098
23174,Stow,42.4298,-71.5115,United States,7098
23170,Marble Falls,30.5649,-98.2768,United States,7099
23171,Northgate,39.2531,-84.5943,United States,7099
23168,Selma,35.5436,-78.2954,United States,7101
23164,Pinson,33.7057,-86.6674,United States,7106
23157,Calipatria,33.1493,-115.5056,United States,7114
23153,Brook Highland,33.4359,-86.6849,United States,7116
23154,Fort Riley,39.1111,-96.8138,United States,7116
8223,Ewa Villages,21.3418,-158.039,United States,7118
23150,Live Oak,30.2956,-82.9847,United States,7118
23151,Bonne Terre,37.9209,-90.5426,United States,7118
23147,Freeland,43.5198,-84.1124,United States,7125
23144,Galliano,29.447,-90.3096,United States,7131
23142,Walled Lake,42.538,-83.4786,United States,7134
23140,Nibley,41.6725,-111.8454,United States,7135
23138,Atherton,37.4539,-122.2032,United States,7137
23137,Fair Plain,42.0823,-86.4515,United States,7138
23133,Gilford,43.5581,-71.385,United States,7139
23134,Nappanee,41.4452,-85.9941,United States,7139
23135,Portage Lakes,41.0034,-81.5347,United States,7139
23132,Palmyra,40.0025,-75.036,United States,7140
23131,De Soto,38.141,-90.5609,United States,7141
23130,Cottage Grove,43.091,-89.2034,United States,7143
23127,Yardville,40.1849,-74.6603,United States,7148
23124,Lawrenceville,38.7264,-87.6873,United States,7150
23123,Tyrone,40.6764,-78.246,United States,7151
23121,Wynne,35.2322,-90.7894,United States,7152
23120,Calverton,40.9163,-72.7645,United States,7154
8219,Nyack,41.0919,-73.9143,United States,7156
23116,Green Brook,40.6038,-74.4825,United States,7158
23117,Gonzales,29.5126,-97.4472,United States,7158
23113,Hillsborough,36.0681,-79.0994,United States,7161
23109,Parkville,39.7859,-76.9686,United States,7162
23110,Parkville,39.2004,-94.7222,United States,7162
8218,Glenolden,39.8996,-75.292,United States,7164
23105,Conewago Township,39.7977,-77.0239,United States,7164
23104,West Bridgewater,42.0214,-71.0267,United States,7165
23102,Earl,40.1142,-76.0959,United States,7169
8216,East Franklin,40.4933,-74.4711,United States,7170
23101,Austell,33.82,-84.645,United States,7170
23097,Pembroke,43.1803,-71.45,United States,7172
23098,Commerce,34.2133,-83.473,United States,7172
23092,Elsa,26.2978,-97.9936,United States,7174
23093,Mecca,33.5767,-116.0645,United States,7174
23094,Sioux Center,43.0748,-96.1707,United States,7174
23091,Independence,41.378,-81.6385,United States,7175
23090,Canfield,41.0315,-80.7672,United States,7176
23088,Pacific,47.261,-122.2507,United States,7178
23083,Enoch,37.767,-113.0449,United States,7180
23082,Hobart,47.412,-121.996,United States,7182
23079,Acton,34.4956,-118.1857,United States,7185
23073,Interlaken,36.9505,-121.7363,United States,7191
8215,South Monrovia Island,34.1234,-117.9958,United States,7192
23072,Morrow,33.5816,-84.3392,United States,7192
23068,Hornsby Bend,30.245,-97.5833,United States,7194
23063,Swanzey,42.8625,-72.2961,United States,7195
23064,Unionville,35.0716,-80.5173,United States,7195
23065,Washington Township,40.5093,-79.6011,United States,7195
23066,Gunnison,38.5455,-106.9225,United States,7195
23061,Lander,42.8313,-108.7599,United States,7197
23060,Skaneateles,42.9321,-76.4131,United States,7198
23057,Knoxville,41.3188,-93.1024,United States,7199
23054,Jackson,43.3237,-88.166,United States,7200
23055,Riverdale Park,38.9642,-76.9266,United States,7200
23052,Milan,35.9126,-88.7554,United States,7201
8214,Dunellen,40.5903,-74.4656,United States,7202
23049,Corbin,36.9321,-84.1004,United States,7202
23046,Alta Sierra,39.1237,-121.0523,United States,7207
23043,Rockport,42.6543,-70.6223,United States,7212
23041,Landen,39.3153,-84.277,United States,7214
23040,Midland Park,40.9952,-74.1411,United States,7216
23032,New Albany,34.4909,-89.0201,United States,7226
23031,Maxatawny,40.526,-75.7444,United States,7227
23024,La Feria,26.1544,-97.8255,United States,7230
23022,Oakdale,40.7373,-73.1345,United States,7231
23021,East Hills,40.7958,-73.6292,United States,7233
23019,Willows,39.5149,-122.1995,United States,7234
23017,Emmitsburg,39.7051,-77.3216,United States,7235
23014,Franklin,35.1798,-83.3808,United States,7238
23012,Attica,42.8257,-78.249,United States,7239
23013,Woodstock,38.875,-78.516,United States,7239
23010,Belle Isle,28.4724,-81.3491,United States,7240
23011,Bedford,37.336,-79.5179,United States,7240
23009,Richland,32.2309,-90.1592,United States,7241
23006,Lakes of the Four Seasons,41.4074,-87.2203,United States,7243
23005,Kenwood,39.2067,-84.3746,United States,7244
23002,Durham,41.4622,-72.6829,United States,7248
23000,Union Grove,42.6863,-88.0495,United States,7251
8208,Williston Park,40.7587,-73.6465,United States,7253
22998,Crystal City,28.6909,-99.8257,United States,7255
22997,Lebanon,41.6313,-72.2402,United States,7256
22994,Napili-Honokowai,20.9767,-156.6646,United States,7258
22992,Neptune Beach,30.3165,-81.4118,United States,7259
22991,Pleasantville,41.1378,-73.7827,United States,7260
22989,Lampasas,31.064,-98.1824,United States,7263
22985,St. Louis,43.4082,-84.6118,United States,7265
22982,Delphos,40.8481,-84.3368,United States,7267
22981,Wauseon,41.5532,-84.141,United States,7269
22977,Ralston,41.2005,-96.0354,United States,7273
22978,Northport,40.9036,-73.3446,United States,7273
22974,Pinehurst,42.5334,-71.234,United States,7275
22971,Wildwood,28.8014,-82.0058,United States,7276
22972,Wawayanda,41.3843,-74.4618,United States,7276
22970,Busti,42.0459,-79.312,United States,7277
22968,Moab,38.5701,-109.5477,United States,7278
22965,Buffalo Township,40.706,-79.7387,United States,7280
22961,Kaufman,32.5769,-96.316,United States,7281
22962,Huron,36.2041,-120.0961,United States,7281
22959,New Cumberland,40.2298,-76.8763,United States,7288
22956,Torrington,42.0658,-104.1623,United States,7289
22954,Connellsville,40.0158,-79.5899,United States,7290
22955,Hardeeville,32.2951,-81.0318,United States,7290
22953,Pompey,42.9229,-75.9803,United States,7294
22951,Longboat Key,27.3926,-82.6341,United States,7296
22952,Meraux,29.9284,-89.9179,United States,7296
22948,Wellington,37.2622,-97.4282,United States,7297
22947,Belmont,43.4685,-71.4757,United States,7298
22942,Shenango,40.9493,-80.3059,United States,7299
22943,Woodlake,37.4216,-77.6783,United States,7299
22944,St. Johnsbury,44.4552,-72.0115,United States,7299
22939,Centerville,34.5256,-82.7161,United States,7303
22928,Derry Township,40.633,-77.5367,United States,7314
22929,Franklin,37.3277,-120.5321,United States,7314
22926,Whiteville,34.3306,-78.7013,United States,7315
22927,South Lockport,43.1377,-78.6864,United States,7315
22923,Geneva,41.8006,-80.9461,United States,7317
22919,Strasburg,38.9961,-78.3548,United States,7320
22920,Oak Grove,36.6686,-87.4216,United States,7320
22917,Umatilla,45.912,-119.3145,United States,7321
22915,Ormond-by-the-Sea,29.3436,-81.0677,United States,7322
22913,New Sewickley,40.7215,-80.1979,United States,7323
22911,Bryans Road,38.6144,-77.085,United States,7325
22912,Valley Center,37.8333,-97.3645,United States,7325
22909,East Marlborough,39.8798,-75.7231,United States,7326
22910,Homeland,33.7459,-117.1132,United States,7326
22905,East Pikeland,40.1326,-75.5631,United States,7331
22902,Rockville,41.8667,-72.4528,United States,7332
22900,Winooski,44.4951,-73.1843,United States,7333
22901,Middleborough Center,41.8945,-70.926,United States,7333
22895,Greenville,40.9981,-73.8194,United States,7336
22891,Dade City,28.3568,-82.1942,United States,7338
22892,Southgate,27.3082,-82.5096,United States,7338
22888,Gibsonville,36.0991,-79.5417,United States,7339
22885,Dayton,40.3815,-74.5137,United States,7340
22886,Hampden,44.735,-68.8896,United States,7340
22883,Northridge,39.9971,-83.777,United States,7343
22882,Bellbrook,39.6384,-84.0863,United States,7344
22879,Spring Hill,38.7565,-94.82,United States,7345
22880,Philadelphia,32.7761,-89.1221,United States,7345
22877,Hudsonville,42.8631,-85.8628,United States,7348
22872,St. Joseph,45.5611,-94.3081,United States,7351
22870,Leola,40.0915,-76.1891,United States,7352
22868,Stanwood,48.2449,-122.3425,United States,7354
22865,Frankstown,40.4453,-78.3185,United States,7356
22866,Yreka,41.7292,-122.6312,United States,7356
22861,Charles City,43.0644,-92.6745,United States,7359
22859,Pomona,39.4687,-74.5501,United States,7362
22858,Coeymans,42.4936,-73.8835,United States,7363
22854,Buena Vista,39.515,-74.8883,United States,7366
22855,New Hanover,40.0159,-74.5741,United States,7366
22849,Plumas Lake,38.9924,-121.558,United States,7367
22850,Winsted,41.9268,-73.0675,United States,7367
22851,Skiatook,36.3694,-95.9819,United States,7367
22845,Oroville East,39.4947,-121.4866,United States,7368
22843,Ponchatoula,30.4402,-90.4428,United States,7369
22842,New Roads,30.6959,-91.4537,United States,7370
8200,Montpelier,44.2658,-72.5717,United States,7372
22840,Tolleson,33.4484,-112.2561,United States,7372
22838,Smithfield Township,41.0198,-75.1359,United States,7373
22839,Middlesex,40.2502,-77.1356,United States,7373
22836,Clarkston,46.4161,-117.0505,United States,7375
22835,Inverness,42.1152,-88.1019,United States,7376
22833,Providence Village,33.2363,-96.9611,United States,7377
22834,Webster City,42.4623,-93.8167,United States,7377
22827,Le Roy,42.9937,-77.972,United States,7379
22828,University of California-Davis,38.5374,-121.7576,United States,7379
22826,Steele Creek,64.9295,-147.3955,United States,7380
22823,Lihue,21.9728,-159.3541,United States,7381
22824,Pembroke,34.6766,-79.1934,United States,7381
22821,South Heidelberg,40.3122,-76.0969,United States,7382
22820,Ephrata,47.3122,-119.534,United States,7383
22817,Farr West,41.3015,-112.0318,United States,7385
22815,Middletown,40.6441,-75.3244,United States,7386
22814,Baywood,40.7533,-73.29,United States,7389
22812,Mentor-on-the-Lake,41.7135,-81.365,United States,7390
22810,New Bremen,40.4356,-84.3777,United States,7393
22809,Welcome,34.8204,-82.46,United States,7394
22807,Robeson,40.2363,-75.8724,United States,7395
22801,Soldotna,60.4862,-151.0672,United States,7398
22796,Fairfield,40.8828,-74.3041,United States,7400
22797,Frankfort,43.0389,-75.1377,United States,7400
22798,Farmington,36.037,-94.2537,United States,7400
22795,Sanibel,26.4534,-82.1023,United States,7401
22794,West Concord,42.4518,-71.4035,United States,7402
22791,West Cocalico,40.2658,-76.163,United States,7403
22789,Saranac Lake,44.3245,-74.1314,United States,7404
22787,Mills River,35.3853,-82.5854,United States,7406
22782,Cotati,38.3279,-122.7092,United States,7410
22776,Inverness,28.8397,-82.3437,United States,7414
22777,Marion,36.8389,-81.5135,United States,7414
22775,Belen,34.7115,-106.7985,United States,7416
8193,Hillcrest,41.1298,-74.035,United States,7418
22772,Stratham,43.0157,-70.9006,United States,7418
22773,Sandwich,41.6496,-88.6177,United States,7418
22770,Hubbard,41.1595,-80.5672,United States,7419
22771,River Rouge,42.2731,-83.1246,United States,7419
22766,Etowah,35.3061,-82.5902,United States,7420
22767,Hiawatha,42.0547,-91.6911,United States,7420
22768,South Berwick,43.2388,-70.7478,United States,7420
22765,North Bend,47.49,-121.7742,United States,7423
22761,McCook,40.2046,-100.6214,United States,7426
22759,New London,44.395,-88.7394,United States,7430
22756,Edgerton,42.8385,-89.0699,United States,7431
22757,Old Lyme,41.32,-72.3034,United States,7431
22758,Old Town,44.9491,-68.7249,United States,7431
22755,Highlands,29.813,-95.0577,United States,7432
22753,Florence,38.3836,-105.1114,United States,7433
22747,Ashland,40.7811,-76.3451,United States,7437
8191,Park City,42.3522,-87.8915,United States,7438
22738,North Star,39.755,-75.7331,United States,7441
22739,White Oak,40.3415,-79.8007,United States,7441
22740,Orosi,36.5434,-119.2903,United States,7441
22741,Rockton,42.45,-89.0629,United States,7441
22736,Waterloo,42.9156,-76.9123,United States,7443
22732,Keystone Heights,29.7812,-82.034,United States,7449
22733,Topanga,34.0964,-118.6053,United States,7449
22725,Palmer,61.5971,-149.1147,United States,7456
22722,St. Gabriel,30.2537,-91.1013,United States,7460
22719,Villa Hills,39.0656,-84.595,United States,7461
22715,Brecknock,40.1977,-76.027,United States,7465
22713,Monticello,41.6522,-74.6876,United States,7468
22712,Ojai,34.4487,-119.2469,United States,7470
22708,Pulaski,35.1933,-87.035,United States,7472
22709,Mount Shasta,41.3206,-122.315,United States,7472
22706,Upper Deerfield,39.4936,-75.2158,United States,7473
22704,Silvis,41.4976,-90.4101,United States,7475
22700,McCordsville,39.8967,-85.9209,United States,7479
22701,Lockwood,45.8199,-108.4072,United States,7479
22696,West Brandywine,40.0413,-75.8121,United States,7482
22695,Upper Hanover,40.3954,-75.5106,United States,7483
22687,Citrus Hills,28.887,-82.4312,United States,7492
22685,Dos Palos,36.9854,-120.6336,United States,7494
22681,Beebe,35.0712,-91.8996,United States,7497
22678,West Slope,45.4962,-122.7731,United States,7498
22677,Creston,41.0597,-94.365,United States,7499
8186,Hatboro,40.1775,-75.1054,United States,7501
22676,Lowell,42.9351,-85.3457,United States,7501
22674,Laughlin,35.1316,-114.689,United States,7502
22675,Purcell,35.018,-97.3747,United States,7502
22671,Diamondhead,30.3791,-89.3708,United States,7504
22668,Tyrone,33.4753,-84.5941,United States,7506
22665,Robinson,39.0089,-87.7333,United States,7513
22662,Lower Windsor,39.962,-76.5362,United States,7514
22663,Fairlawn,41.127,-81.6215,United States,7514
22664,Fort Scott,37.8283,-94.7038,United States,7514
22661,Chesterfield,40.1165,-74.6459,United States,7516
22659,Marengo,42.2312,-88.6153,United States,7517
22657,Norwich,42.5333,-75.5227,United States,7518
22658,Benton,38.011,-88.9179,United States,7518
22652,Mount Horeb,43.006,-89.7317,United States,7520
22653,Mantua,38.8526,-77.2571,United States,7520
22649,Fairfax,37.9886,-122.5952,United States,7522
22648,Gold River,38.6268,-121.2488,United States,7523
22646,Loudoun Valley Estates,38.9801,-77.5082,United States,7528
22644,Haddon Heights,39.8791,-75.0645,United States,7529
22645,Larose,29.5669,-90.3751,United States,7529
22642,Pikeville,37.4807,-82.5262,United States,7531
22641,Royalton,43.1522,-78.5434,United States,7532
22639,Big Stone Gap,36.8626,-82.7769,United States,7533
22634,Delafield,43.072,-88.3913,United States,7536
22635,Berlin,39.7915,-74.9375,United States,7536
22631,Albertville,45.2364,-93.6618,United States,7539
22629,North Hanover,40.0799,-74.5869,United States,7540
22630,Sanger,33.3716,-97.1677,United States,7540
22627,Kula,20.7706,-156.3284,United States,7541
22623,East Manchester,40.0567,-76.7019,United States,7545
22622,Marshall,42.2617,-84.9597,United States,7548
22620,Fairview,35.9815,-87.1291,United States,7549
22619,Jackson,38.3485,-120.7728,United States,7550
22617,Eden Isle,30.2268,-89.8043,United States,7554
22618,Ancient Oaks,40.536,-75.5852,United States,7554
22616,Harrison,35.1276,-85.1464,United States,7555
22613,Columbia Falls,48.3708,-114.1903,United States,7556
8179,Glenside,40.1032,-75.1517,United States,7558
22612,Easton,41.2649,-73.3,United States,7558
22611,North Patchogue,40.7833,-73.0234,United States,7561
22609,Lawrence Township,41.0843,-78.4499,United States,7562
22608,Scappoose,45.7564,-122.8771,United States,7564
22606,Hughson,37.602,-120.866,United States,7565
22603,Hales Corners,42.941,-88.0491,United States,7567
22604,East Fallowfield,39.9508,-75.8185,United States,7567
22601,Makawao,20.848,-156.319,United States,7570
22599,Floresville,29.14,-98.163,United States,7571
22600,Dighton,41.836,-71.1552,United States,7571
8177,Glen Ridge,40.8041,-74.2043,United States,7574
22592,Sappington,38.526,-90.373,United States,7577
22585,Twin Lakes,39.8229,-105.0036,United States,7586
22584,Palmyra,40.31,-76.5945,United States,7587
22583,LaFayette,34.7088,-85.2815,United States,7589
22582,Zuni Pueblo,35.0708,-108.8484,United States,7590
22580,Pinon Hills,34.4438,-117.6214,United States,7592
22578,Caribou,46.8662,-67.9919,United States,7593
22579,Tuttle,35.3069,-97.7562,United States,7593
22575,Bernardsville,40.7268,-74.5918,United States,7594
22571,Emerson,40.9748,-74.0239,United States,7596
22569,Shirley,42.5725,-71.6471,United States,7598
22568,Farmington,44.676,-70.141,United States,7600
22564,Livonia,42.8091,-77.6523,United States,7601
22565,Escalon,37.7912,-120.9982,United States,7601
22566,Perry,41.8387,-94.0937,United States,7601
8176,Calumet Park,41.665,-87.6578,United States,7602
22563,Schaghticoke,42.885,-73.6115,United States,7604
22557,Broadview,41.8584,-87.8562,United States,7618
22554,Berwick,43.3006,-70.844,United States,7620
22552,Summit View,47.1343,-122.3468,United States,7621
22553,Wimauma,27.6964,-82.3034,United States,7621
22550,Thomaston,41.6696,-73.0859,United States,7623
22548,South Beloit,42.4822,-89.0248,United States,7624
22549,Winslow,44.5277,-69.5768,United States,7624
22545,Richmond,41.4983,-71.6608,United States,7626
22543,Wapato,46.4435,-120.4215,United States,7627
22544,Waupaca,44.3506,-89.0719,United States,7627
22538,River Oaks,32.7767,-97.3984,United States,7630
22537,Devils Lake,48.1131,-98.875,United States,7631
22535,Catalina,32.4848,-110.8998,United States,7635
22534,Charlestown,38.427,-85.6677,United States,7637
22532,Upper Milford,40.4934,-75.5192,United States,7638
22533,Marshfield,37.3414,-92.9116,United States,7638
22529,Scotia,42.8321,-73.9607,United States,7642
22526,Windsor,43.2406,-89.2952,United States,7644
22527,North Springfield,38.8024,-77.2028,United States,7644
22524,Palmyra,43.0834,-77.1917,United States,7646
22525,Lamar,38.0739,-102.6153,United States,7646
22522,Lake of the Woods,38.3342,-77.7599,United States,7649
22521,Inwood,28.0391,-81.7677,United States,7651
22517,Chehalis,46.6638,-122.965,United States,7654
22518,Butler,40.9989,-74.3471,United States,7654
22513,Oakdale,30.8157,-92.6542,United States,7656
22514,Meadow Lakes,61.638,-149.608,United States,7656
22515,Brighton,42.5298,-83.7847,United States,7656
22512,Eden,42.6527,-78.8787,United States,7657
22509,Thurmont,39.621,-77.4076,United States,7659
22508,Auburn,34.0157,-83.8319,United States,7660
22506,Valley Township,39.9849,-75.8503,United States,7661
22507,Middlebury,41.5271,-73.1228,United States,7661
22504,Allegany,42.0869,-78.5212,United States,7663
8171,Holtville,32.813,-115.378,United States,7664
22500,St. Rose,29.9649,-90.3088,United States,7665
22501,Westminster,42.5512,-71.9027,United States,7665
22498,Polk Township,40.9291,-75.5022,United States,7666
22497,Richfield,38.7628,-112.0926,United States,7668
22494,Indiantown,27.0375,-80.4913,United States,7669
22495,Half Moon,34.8298,-77.4591,United States,7669
22496,Plain City,41.307,-112.0877,United States,7669
22492,Hastings,42.6498,-85.2887,United States,7670
22488,Sebastopol,38.4001,-122.8276,United States,7674
22487,Plaistow,42.8403,-71.096,United States,7677
22485,Oceano,35.1019,-120.609,United States,7678
22482,Chippewa,40.7614,-80.3791,United States,7682
22483,Orange,42.6066,-72.2931,United States,7682
22481,Carbondale,39.3949,-107.2147,United States,7684
22472,Big Flats,42.1387,-76.9138,United States,7689
